stop_point_id,lat,lon,name,first_stop_area_id
StopPoint:node:768587345,5.3164438999999994,-4.089334099999999,Terminus 27,
StopPoint:node:768587373,5.3198783,-4.0804016,Yopougon Sideci - Terminus 42,
StopPoint:node:773855851,5.4038879,-3.9857593999999996,Terminus 81/82,
StopPoint:node:775786985,5.3309391999999995,-3.9578221,Ex Terminus Sotra;Carrefour Sol Beni,
StopPoint:node:1955914051,5.3100743,-4.0150469,Avenue Christiani,
StopPoint:node:2003993801,7.669522799999999,-5.0442792999999995,1er Arrêt des Gbaka,
StopPoint:node:2381298633,5.3608351,-4.0171228999999995,Agban,
StopPoint:node:2443736823,5.306861,-3.9640635,Gare de Wôrô-Wôrô d'Anoumabo,
StopPoint:node:2444131222,5.3438972,-4.018311,Fraternité Matin,
StopPoint:node:2453443617,5.3115337,-3.9740528999999998,Arret de bus,
StopPoint:node:2460519991,5.3423485,-4.073243199999999,Saint André lavage,
StopPoint:node:2476299733,5.3057476,-3.9763355,,
StopPoint:node:2476303039,5.3068867,-3.9773022,Arrêt de bus (03-31),
StopPoint:node:2476303739,5.3107413999999995,-3.9772089,Arrêt de bus (03-31),
StopPoint:node:2476306856,5.311706,-3.9732735,Arrêt de bus (03-31),
StopPoint:node:2476308724,5.3101303,-3.9640413,Arrêt de bus (03-31),
StopPoint:node:2476311863,5.3079236,-3.9640009999999997,Arrêt de bus (03-31),
StopPoint:node:2476314228,5.3078622,-3.9640017999999997,Arrêt de bus (03-31),
StopPoint:node:2477686907,5.3064881999999995,-3.9857649,,
StopPoint:node:2493226931,5.3413464,-4.0238610999999995,Arrêt,
StopPoint:node:2493730483,5.2942027,-3.9551669,Gare Koumassi,
StopPoint:node:2493732230,5.2948938,-3.9559024999999997,woro woro adjame,
StopPoint:node:2760843854,5.312132399999999,-3.9452249999999998,Terminus 05 Lycée Municipal de Koumassi,
StopPoint:node:2902894063,5.3538554,-4.016554,Gare de wôrô-wôrô de Williamsville,
StopPoint:node:2948146673,5.3396167,-4.0832298,Terminus bus 47,
StopPoint:node:3025272708,5.2955802,-3.9874929,,
StopPoint:node:3067761599,5.3396156999999995,-4.0912463,Arret du Maroc,
StopPoint:node:3067766418,5.340233899999999,-4.1003523,,
StopPoint:node:3067766555,5.3400628999999995,-4.0973067,Mosquée du Maroc,
StopPoint:node:3075945505,5.3423254,-4.0738294999999995,Saint André,
StopPoint:node:3123713351,5.3285952,-3.9323558,,
StopPoint:node:3137208051,5.3427541,-4.0668084,,
StopPoint:node:3137217828,5.3436761,-4.0709484,2 poteaux,
StopPoint:node:3137243386,5.344676799999999,-4.0679411,Newton,
StopPoint:node:3137244964,5.344552,-4.0677822,,
StopPoint:node:3142681418,5.3807202,-3.9644698,,
StopPoint:node:3145728412,5.3531115,-3.979568,Riviéra 2,
StopPoint:node:3172419225,5.3250807,-4.001591299999999,,
StopPoint:node:3178527188,5.4046921,-3.9920069,Gare des taxis d'Abobo,
StopPoint:node:3218806159,5.3117095999999995,-3.9487208,Eglise Evangélique Internationnal Foursquare,
StopPoint:node:3326195828,5.3368705,-4.0037743,Saint Jean,
StopPoint:node:3396926870,5.2892377,-3.9691935,Wôrô-wôrô,
StopPoint:node:3396926874,5.2899064,-3.9694482,,
StopPoint:node:3489747206,5.268506899999999,-4.0062837,,
StopPoint:node:3605638544,5.3458049999999995,-3.9901614999999997,Arrêt de bus électriques- Université,
StopPoint:node:3666057101,5.3470566999999996,-4.0884501,Pharmacie Port-Bouët II,
StopPoint:node:3781465058,7.6847015,-5.0450308999999995,,
StopPoint:node:3806582754,7.6820602,-5.0301887,Arrêt de bus,
StopPoint:node:3950172145,5.3493507,-4.0734547,Figayo,
StopPoint:node:4019691346,5.3408323,-4.0649916,,
StopPoint:node:4021778943,7.6890129,-5.03025,,
StopPoint:node:4029208102,5.3616481,-3.9973698,"ENA Cocody, Boulevard Latrille",
StopPoint:node:4038594408,5.4744709,-3.8045586,Station Autobus,
StopPoint:node:4063655568,5.3349310999999995,-3.9956704999999997,,
StopPoint:node:4063656146,5.3345154,-3.9903182,,
StopPoint:node:4107240493,5.276244,-3.9668949,Gare de Wôrô Wôrô,
StopPoint:node:4107240891,5.2742872,-3.9786938,Pharmacie de Bietry,
StopPoint:node:4165904524,7.6879789999999995,-5.0280607999999996,,
StopPoint:node:4249632774,5.3585107,-4.0372919,Termunis du bus 02 Cité fairmont,
StopPoint:node:4337038016,5.2651661,-4.0114259,,
StopPoint:node:4411562346,5.3296306,-4.061373,Terminus 85,
StopPoint:node:4430910012,7.6796280999999995,-5.0279685999999995,,
StopPoint:node:4633269025,5.4818964,-4.0515794,,
StopPoint:node:4659944490,5.3133456,-3.9439194,Koumassi terminus 05,
StopPoint:node:4782251624,5.2745951,-3.9810261,Rodrigue,
StopPoint:node:4819697544,5.3159469,-4.089632,Gare Azito,
StopPoint:node:4858065722,5.348518299999999,-4.0039133,Gare Plateau de la vie,
StopPoint:node:4977476396,5.369294,-3.9984043999999996,Gare wôrô-wôrô Deux Plateaux,
StopPoint:node:4999458824,5.2948647,-4.004071,Terminus CHU de Treichville,
StopPoint:node:5030710121,5.7632777,-3.9789021,Carrefour Pecto,
StopPoint:node:5057165424,5.301876699999999,-4.0110975,Ex-pharmacie Mockey,
StopPoint:node:5057297311,5.3369029,-4.0039817,Arrêt de bus 94;Carrefour St Jean,
StopPoint:node:5061017421,5.7585332,-3.9823245,Carrefour Affoue,
StopPoint:node:5068855021,5.4158257999999995,-3.9933115999999997,Terminus 704 abobo Belleville,
StopPoint:node:5143730222,5.3283192999999995,-3.9408132,Terminus M'pouto - CIAD,
StopPoint:node:5143751833,5.3284442,-3.9410686,Terminus M'pouto - CIAD,
StopPoint:node:5147952122,5.4218733,-4.0165052,"Gare de gbaka Dokui, Zoo, Paillet",
StopPoint:node:5151223622,5.4215881,-4.016037799999999,Gare Angré Pétro Ivoire,
StopPoint:node:5151231923,5.351134399999999,-3.9911496,Arrêt wibus,
StopPoint:node:5156837725,5.3537326,-4.0280581,Gare de wôrô-wôrô Treichville Marcory Koumassi,
StopPoint:node:5156856821,5.3090367999999994,-4.0153032,Gare de wôrô-wôrô,
StopPoint:node:5281604034,5.3437686,-4.0711802,,
StopPoint:node:5299283324,5.342251699999999,-4.0664755999999995,,
StopPoint:node:5299389451,5.3407348,-4.0649226,,
StopPoint:node:5414376221,5.3555889,-4.0205264,Stif,
StopPoint:node:5425049447,5.3222796,-4.0530042,Gare de Bingerville,
StopPoint:node:5481186122,7.4541637,-4.3380804,KKM TRANSPORT,
StopPoint:node:5535571842,5.132472,-3.2925646,Traversée pirogue,
StopPoint:node:5739489700,5.3415133,-4.0623618,Complexe sportif de Yopougon,
StopPoint:node:5892858715,5.788166599999999,-6.600311,GARE D'OKROUYO,
StopPoint:node:5892933976,5.7886863,-6.6001027,Gare TSF Odienne,
StopPoint:node:5892936985,5.7884965,-6.6001362,Gare d’Odienné,
StopPoint:node:5892936988,5.7884081,-6.600043299999999,Gare de Dibievi,
StopPoint:node:5927302128,5.349342699999999,-4.073208,Figayo,
StopPoint:node:5934409413,5.3419897,-4.1003513,Arret de bus,
StopPoint:node:5936892363,5.367132799999999,-4.102032299999999,Terminus du bus 34,
StopPoint:node:5953580657,5.402885899999999,-3.9785378999999996,Bicici Djibi,
StopPoint:node:5953580661,5.3802448,-3.967352,Pharmacie Val de Grace,
StopPoint:node:5953580666,5.3695213,-3.9586785,Pharmacie du bonheur,
StopPoint:node:5953580667,5.3618751,-3.9593076999999997,Carrefour Palmeraie,
StopPoint:node:5953580668,5.3582581,-3.9643623,Station Shell Riviera 3,
StopPoint:node:5954541435,5.3286164,-3.9498433,CIAD,
StopPoint:node:5954541438,5.3358519,-3.9767957999999997,Ambassade des USA,
StopPoint:node:5954541439,5.3347766,-3.9902178999999998,Boulevard de France,
StopPoint:node:5954541440,5.3492831,-4.0024723,Carrefour de la Vie,
StopPoint:node:5957239660,5.4121523,-3.9820156,Chateau d'eau d'Angré,
StopPoint:node:5957239661,5.4046007,-3.9908227,Petro Ivoire Angré,
StopPoint:node:5957239662,5.3989296,-3.991548,Carrefour 22è,
StopPoint:node:5957239663,5.3855754,-3.9931427999999998,Carrefour Opéra,
StopPoint:node:5957239664,5.3778779,-3.9973645999999996,Carrefour Duncan,
StopPoint:node:5957239665,5.3615936,-3.9975967999999997,ENA,
StopPoint:node:5957239666,5.328577999999999,-4.0050058,Hotel Ivoire,
StopPoint:node:5957239667,5.3222225,-4.0026151,Blockhauss,
StopPoint:node:5958266385,5.3975314,-3.9860303,Pharmacie Les Laureades,
StopPoint:node:5958266386,5.3806538999999995,-3.9881293999999996,Petro Ivoire 7è Tranche,
StopPoint:node:5958266387,5.373758,-3.9845519,Commisariat 30è Art.,
StopPoint:node:5958266388,5.370110899999999,-3.9813020999999997,Terminus 202 Attoban,
StopPoint:node:5958266389,5.3673274,-3.9797108999999997,Parmacie St Bernard,
StopPoint:node:5958266390,5.3573659,-3.9782153,Pharmacie St Ange,
StopPoint:node:5958266391,5.3558221999999995,-3.9779595999999997,Collège André Malraux,
StopPoint:node:5958266392,5.3541894999999995,-3.9773239,Riviera 2,
StopPoint:node:5961735082,5.4239193,-4.0499566,Gare Gbaka Anonkou-Sodeci,
StopPoint:node:6098848385,5.3247785,-4.0207447,Saint Paul Plateau,
StopPoint:node:6136850508,5.3238161999999996,-4.0205509,Hôtel de Ville,
StopPoint:node:6136850509,5.3234932,-4.0205339,Hotel de Ville,
StopPoint:node:6136850510,5.3236666999999995,-4.0205326999999995,,
StopPoint:node:6136858285,5.3226907,-4.0205256,Terminus Hotel de Ville,
StopPoint:node:6195348341,5.3317403,-4.021322,Cathédrale Saint paul,
StopPoint:node:6281030720,5.4148488,-4.0333198999999995,Terminus bus 51/52,
StopPoint:node:6474137921,5.4351427999999995,-4.0144508,Gare Abobo Sogephia,
StopPoint:node:6474137923,5.4363696,-4.0125445,BICICI,
StopPoint:node:6474137925,5.4382744999999995,-4.0147435,Cours Sociaux,
StopPoint:node:6474137927,5.4381179,-4.019424,Avenue Kaza,
StopPoint:node:6474137929,5.435547199999999,-4.0202491,Camp Commando,
StopPoint:node:6474137931,5.4306474,-4.0200922,Station Shell,
StopPoint:node:6474137932,5.4263959,-4.0198488,Gendarmerie Abobo,
StopPoint:node:6474137934,5.4234101,-4.0187446,Terminus Gendarmerie Abobo,
StopPoint:node:6474137936,5.4171616,-4.0166455,2ème Arrêt,
StopPoint:node:6474137938,5.4131456,-4.0159709999999995,Banco,
StopPoint:node:6474137940,5.4089746,-4.0160152,Anador,
StopPoint:node:6474137942,5.392647,-4.0207427,Université Nangui Abrogoua,
StopPoint:node:6474137944,5.3774907,-4.0255918,Macaci,
StopPoint:node:6474137946,5.3592442,-4.027655,Gare Nord,
StopPoint:node:6474137948,5.3591608,-4.0274455,Gare Nord,
StopPoint:node:6474137950,5.3533564,-4.0257670999999995,Grande Mosquée Adjamé,
StopPoint:node:6474137952,5.3477689999999996,-4.0256668,Foire de Chine,
StopPoint:node:6474137954,5.3431983999999995,-4.0259753,Mairie d'Adjamé,
StopPoint:node:6474137956,5.3312371999999995,-4.0238205,Terminus tours Administratives,
StopPoint:node:6474137958,5.3278045,-4.0238800999999995,Immeuble Sogefiha,
StopPoint:node:6474137967,5.314504299999999,-4.0181049,Gare Sud,
StopPoint:node:6474137979,5.3179650999999994,-4.019718,Présidence,
StopPoint:node:6474137980,5.3225013,-4.019747199999999,Galerie du Parc,
StopPoint:node:6474137981,5.3339569,-4.0247204,Camp Galliéni,
StopPoint:node:6474137982,5.3386571,-4.026107,Institut National de la Santé Publique,
StopPoint:node:6474137983,5.343713,-4.0260495999999995,Mairie d'Adjamé,
StopPoint:node:6474137984,5.3459921,-4.0258452,Marché Forum,
StopPoint:node:6474138985,5.3503682,-4.0255664,Pharmacie du Banco,
StopPoint:node:6474138986,5.3534527,-4.0259070999999995,Grande Mosquée Adjamé,
StopPoint:node:6474138987,5.3586829,-4.028099,Gare Nord,
StopPoint:node:6474138988,5.3765773999999995,-4.0263861,Macaci,
StopPoint:node:6474138989,5.3906844,-4.0210349999999995,Filtisac,
StopPoint:node:6474138990,5.4085961,-4.0162968999999995,Anador,
StopPoint:node:6474138991,5.4135848,-4.0162419,Banco,
StopPoint:node:6474138992,5.4183764,-4.0173344,Saint-Joseph 2ème Arrêt,
StopPoint:node:6474138993,5.4237125,-4.0190817999999995,Terminus Gendarmerie Abobo,
StopPoint:node:6474138994,5.4315506,-4.020231,Bar Ivoire Abobo,
StopPoint:node:6474138995,5.4363436,-4.0203885999999995,DGI Abobo,
StopPoint:node:6474138996,5.4382274,-4.0189201,Avenue Kaza,
StopPoint:node:6474138997,5.4383935999999995,-4.0138587,Carrefour Akeïkoi,
StopPoint:node:6474138999,5.3149589,-4.0190673,Terminus Gare Sud,
StopPoint:node:6474139031,5.4350792,-4.0127537,Cité Universitaire Abobo,
StopPoint:node:6474139033,5.4354761,-4.0154322,Quai 15,
StopPoint:node:6614329781,5.3443185,-4.003689,,
StopPoint:node:6815808830,5.3580852,-3.9641507,Station Shell Riviera 3,
StopPoint:node:6815808831,5.3620442,-3.9591336,Carrefour Palmeraie,
StopPoint:node:6815808832,5.3802452,-3.9672641,Pharmacie Val de Grace,
StopPoint:node:6815808833,5.3865761,-3.9744202,CNPS 9ème Tranche,
StopPoint:node:6815808834,5.4010459,-3.9780244,Marché COCOVICO,
StopPoint:node:6815808835,5.4028903999999995,-3.9783234999999997,Bicici Djibi,
StopPoint:node:6815808838,5.4037729,-3.9857961,Terminus 81/82,
StopPoint:node:6815808839,5.3738506,-3.9618124999999997,Quick Market,
StopPoint:node:6815808840,5.373772799999999,-3.9618580999999997,Quick Market,
StopPoint:node:6815808841,5.3776576,-3.9634251999999996,Commissariat 35è Art.,
StopPoint:node:6815808842,5.3776142,-3.9635563,Commissariat 35è Art.,
StopPoint:node:6815808843,5.3866021,-3.9745307999999997,CNPS 9ème Tranche,
StopPoint:node:6815808844,5.4010482,-3.9781939,Marché COCOVICO,
StopPoint:node:6815808845,5.3698806999999995,-3.9587098,Pharmacie du bonheur,
StopPoint:node:6815808846,5.3832059999999995,-3.9725319,Groupe Scolaire St Marc,
StopPoint:node:6815808847,5.3833082,-3.9725091,Groupe Scolaire St Marc,
StopPoint:node:6815960786,7.6694748,-5.049180499999999,3ème Arrêt des Gbaka,
StopPoint:node:6815960886,7.669486099999999,-5.050218399999999,Carrefour Pharmacie,
StopPoint:node:6815960887,7.669467099999999,-5.0529386,5ème Arrêt des Gbaka,
StopPoint:node:6815960888,7.669445499999999,-5.0557593,6ème Arrêt des Gbaka,
StopPoint:node:6815960889,7.669436999999999,-5.0574297,7ème Arrêt des Gbaka,
StopPoint:node:6815960890,7.669422399999999,-5.0595421,Ancien Terminus des Gbaka,
StopPoint:node:6815961286,7.6695072,-5.0469291,2ème Arrêt des Gbaka,
StopPoint:node:6815972585,7.669482599999999,-5.0491869,4ème Arrêt des Gbaka,
StopPoint:node:6815972586,7.6694327,-5.0581293,Carrefour Jaune-Noir,
StopPoint:node:6815972685,7.6694765,-5.051544,4ème Arrêt des Gbaka,
StopPoint:node:6816010586,7.6720159,-5.043031399999999,Arrêt du Banco,
StopPoint:node:6816010685,7.6756074,-5.0402885,Carrefour Santé Mentale,
StopPoint:node:6819328985,5.282598999999999,-3.9692171999999997,Camp Commando de Koumassi,
StopPoint:node:6819329085,5.2892136,-3.9707407,Grand carrefour de Koumassi,
StopPoint:node:6819329086,5.2921087,-3.9741109,Hôtel Ibis Marcory,
StopPoint:node:6819329087,5.3194934,-4.0143679,,
StopPoint:node:6819329185,5.291629299999999,-3.9736909999999996,Hôtel Ibis Marcory,
StopPoint:node:6819329285,5.3008419,-3.9897183999999997,Chimtec Grand carrefour Marcory,
StopPoint:node:6820855646,5.335819,-3.9767154999999996,Ambassade des USA,
StopPoint:node:6820855647,5.3309825,-3.9728877,Hotel du Golf,
StopPoint:node:6820855648,5.331029699999999,-3.9730063999999996,Hotel du Golf,
StopPoint:node:6820855649,5.3312498,-3.9579229,Ex Terminus Sotra;Carrefour Sol Beni,
StopPoint:node:6831076677,5.332764,-4.021605,Cathédrale Saint paul,
StopPoint:node:6831076678,5.3299677999999995,-4.0205671,Église Méthodiste Unie de Côte d'Ivoire,
StopPoint:node:6831076682,5.314870399999999,-4.0185085,Gare Sud,
StopPoint:node:6832290086,5.2988832,-3.9867521,Cap Sud,
StopPoint:node:6899034705,5.2996481,-4.002239299999999,Gare de bassam,
StopPoint:node:6899034706,5.3004143,-3.9997862,Gendarmerie,
StopPoint:node:6899034707,5.303315,-4.0037983,Notre-dame,
StopPoint:node:6899034708,5.3072484,-4.005186,Pharmacie Nanan Yamousso,
StopPoint:node:6899034709,5.3099574,-4.0061406999999996,Après le pont,
StopPoint:node:6899034710,5.353411599999999,-4.0160602999999995,Adjamé liberté,
StopPoint:node:6899053345,5.3534641,-4.014846299999999,Adjamé liberté,
StopPoint:node:6899053346,5.353536399999999,-4.0120306999999995,Gare de Bingerville,
StopPoint:node:6899053347,5.325075,-4.0152949,Feux du plateau,
StopPoint:node:6899053348,5.310149099999999,-4.0061218,Nanan Yamousso,
StopPoint:node:6899053349,5.2996796999999995,-4.0024275,Gare de bassam,
StopPoint:node:6899241573,5.4200067,-4.0174383,Abobo Gare Mairie,
StopPoint:node:6899241574,5.4142627,-4.0159966,Mobil,
StopPoint:node:6899241575,5.3845867,-4.0214171,Lavage,
StopPoint:node:6899241576,5.37725,-4.0257575,Macaci,
StopPoint:node:6899241577,5.354345899999999,-4.0164004,Adjamé Liberté,
StopPoint:node:6899264970,5.349107,-4.021217399999999,Marché Gouro,
StopPoint:node:6899264971,5.3547097,-4.0163905,Adjamé Liberté,
StopPoint:node:6899264972,5.358734,-4.016791,Station Total,
StopPoint:node:6899264973,5.4215493,-4.0171184,Abobo Gare Mairie,
StopPoint:node:6900316196,5.3464187999999995,-3.9971869,,
StopPoint:node:6900316198,5.3353193,-3.9976103999999997,,
StopPoint:node:6900316199,5.3353627999999995,-3.9999658,,
StopPoint:node:6900317090,5.3377541,-3.9961887999999997,,
StopPoint:node:6902638988,5.4195822,-4.0153259,Carrefour Marché,
StopPoint:node:6902638989,5.4186048,-4.0135168,Petro Ivoire,
StopPoint:node:6902638990,5.4168519,-4.010197499999999,Au Bar,
StopPoint:node:6902638991,5.415799799999999,-4.0080786,Petit Carrefour,
StopPoint:node:6902638992,5.4152517,-4.0066972,Samaké,
StopPoint:node:6902638993,5.3994804,-4.0064893999999995,Azur,
StopPoint:node:6902638994,5.3780522,-4.0070352,Panneau ZOO,
StopPoint:node:6902638995,5.4197843,-4.0157753,Abobo Gare Mairie,
StopPoint:node:6902638996,5.417654799999999,-4.0117095,Ciné Cool,
StopPoint:node:6902638997,5.4144283,-4.0062697,Boulangerie Samake,
StopPoint:node:6902638998,5.410863,-4.0062877,Menuiserie,
StopPoint:node:6902638999,5.4101067,-4.0063067,Tchapatcha,
StopPoint:node:6902639000,5.4092677,-4.0063409,Chaine Avion,
StopPoint:node:6902639001,5.4051187999999994,-4.0063993,Pharmacie Dokui,
StopPoint:node:6902639002,5.4036347,-4.0064176,SODECI,
StopPoint:node:6902639003,5.4020966999999995,-4.0064567,Étage Noir,
StopPoint:node:6902639004,5.4001879,-4.0064867,Mobil,
StopPoint:node:6902639005,5.396817899999999,-4.006353,Arrêt Dokui,
StopPoint:node:6902639006,5.3929293,-4.005793,Ancien Feu,
StopPoint:node:6902639007,5.3872276,-4.005732,Bangui,
StopPoint:node:6902639008,5.385186399999999,-4.0060126,Vidange,
StopPoint:node:6902639009,5.382931,-4.0063262,HMA,
StopPoint:node:6902639010,5.3721147,-4.011813399999999,Carrefour paillet,
StopPoint:node:6902639011,5.3653116999999995,-4.0157875999999995,Carrefour 2 Plateaux,
StopPoint:node:6902639012,5.3553627,-4.0160705,Gare des gbakas d’Abobo par le zoo,
StopPoint:node:6902868224,5.4184847,-4.0136214,Petro Ivoire,
StopPoint:node:6902868225,5.4176462999999995,-4.0120067,Ciné Cool,
StopPoint:node:6902868226,5.4167077,-4.0102981,Au Bar,
StopPoint:node:6902868227,5.405193499999999,-4.0065403,Pharmacie Dokui,
StopPoint:node:6902868228,5.403670099999999,-4.0065873,SODECI,
StopPoint:node:6902868229,5.40212,-4.0066315,Étage Noir,
StopPoint:node:6902868230,5.4002026999999995,-4.0066597,Mobil,
StopPoint:node:6902868231,5.3994577,-4.0066033999999995,Azur,
StopPoint:node:6902868232,5.3965911,-4.0064518,Arrêt Dokui,
StopPoint:node:6902868233,5.3928327,-4.0059301,Ancien Feu,
StopPoint:node:6902868234,5.387252999999999,-4.005859,Bangui,
StopPoint:node:6902868235,5.3852715,-4.0061326,Vidange,
StopPoint:node:6902868236,5.3829176,-4.0064505,HMA,
StopPoint:node:6902868237,5.3716859,-4.0122238999999995,Carrefour paillet,
StopPoint:node:6902868238,5.365405,-4.0159576,Carrefour 2 Plateaux,
StopPoint:node:6902868239,5.3633371,-4.016812799999999,Willy Agban,
StopPoint:node:6902868240,5.366829699999999,-4.0152076999999995,Cimetière,
StopPoint:node:6902868241,5.3765336999999995,-4.0094557,CIE,
StopPoint:node:6902868242,5.378993899999999,-4.0070149,ZOO,
StopPoint:node:6902868243,5.390055299999999,-4.0056173,Eglise,
StopPoint:node:6902868244,5.41329,-4.0099567,Pharmacie Racines,
StopPoint:node:6902868245,5.4197638999999995,-4.0160257,Abobo Gare Mairie,
StopPoint:node:6902975747,5.4500231999999995,-4.0135154,Christine Bar,
StopPoint:node:6902975748,5.4607326,-4.0109926,Terminus Akéikoi village,
StopPoint:node:6902975749,5.45899,-4.010773299999999,A l'école,
StopPoint:node:6902975750,5.455207,-4.0112928,Destin,
StopPoint:node:6902975751,5.4542173,-4.0119565999999995,Monnaie,
StopPoint:node:6902975752,5.4528753,-4.012859199999999,André Bar,
StopPoint:node:6902975753,5.451049299999999,-4.0133357,Carrefour marché,
StopPoint:node:6902975754,5.446249,-4.0143571,A l'étage,
StopPoint:node:6902975755,5.4394513,-4.0141843,Boulangerie,
StopPoint:node:6902975756,5.438403999999999,-4.0140794,Carrefour Akéikoi,
StopPoint:node:6902975757,5.4225885,-4.0161726,Gare Gbaka Akeïkoi,
StopPoint:node:6903084141,5.4510779,-4.0134484,Carrefour marché,
StopPoint:node:6903084142,5.4530404,-4.0129173,André Bar,
StopPoint:node:6903084143,5.4542793,-4.0120751,Monnaie,
StopPoint:node:6903097494,5.438503,-4.0142825,Au goudron,
StopPoint:node:6903097495,5.4227551,-4.0160694,Gare Abobo,
StopPoint:node:6903097496,5.4230450999999995,-4.013945,Au tournant,
StopPoint:node:6903097497,5.427878199999999,-4.0146817,Au Feu,
StopPoint:node:6903097498,5.4334549999999995,-4.0124107,Célibataire,
StopPoint:node:6903097499,5.4352003,-4.0124925,JAUG,
StopPoint:node:6903097500,5.4383232999999995,-4.013588299999999,Cité,
StopPoint:node:6903097501,5.4490169999999996,-4.0138345,Boulangerie,
StopPoint:node:6903097502,5.4500084,-4.0136722,Christine Bar,
StopPoint:node:6903097503,5.455298399999999,-4.01134,Destin,
StopPoint:node:6903097504,5.4594778999999996,-4.0109968,A l'ecole,
StopPoint:node:6903097505,5.460775,-4.0111868,Terminus Akéikoi Village,
StopPoint:node:6903193216,5.4429020999999995,-4.0144891,Mosquée,
StopPoint:node:6903193217,5.4463091,-4.0144891,A l'étage,
StopPoint:node:6903268819,5.421939999999999,-4.0165181,Abobo Gare Mairie,
StopPoint:node:6903268820,5.4223082,-4.0163196999999995,Gare Abobo Kennedy-Marché/ Mosquée Ado,
StopPoint:node:6903268821,5.4211585,-4.0100057,Station,
StopPoint:node:6903268822,5.4236887,-4.0015221,Kennedy Marché,
StopPoint:node:6903296476,5.4221255,-4.011717,Mosquée,
StopPoint:node:6903296477,5.418662299999999,-4.0060106,Carrefour Kennedy,
StopPoint:node:6903296478,5.418612899999999,-4.005922099999999,Carrefour Kennedy,
StopPoint:node:6903296479,5.4213432,-4.0039185,Makan Traoré,
StopPoint:node:6903296480,5.4236156,-4.0015453,Au marché,
StopPoint:node:6903296481,5.423623,-4.0021714,A Gauche,
StopPoint:node:6903296482,5.4214359,-4.0037249,Makan Traoré,
StopPoint:node:6903347574,5.3286546,-3.9324706,Cocody Riviera M'badon,
StopPoint:node:6903347575,5.3293417,-3.9332266999999996,Nouveau marché,
StopPoint:node:6903347576,5.329969,-3.9339945999999997,Ancien marché,
StopPoint:node:6903347577,5.3307516999999995,-3.9350316999999997,Centre de santé Municipal de M'Badon,
StopPoint:node:6903347578,5.331008,-3.9352625999999997,La ferme,
StopPoint:node:6903347579,5.3353839,-3.9393933,Pharmacie,
StopPoint:node:6903347580,5.3384154,-3.9427407,2 poteaux,
StopPoint:node:6903347581,5.339948,-3.945032,Antenne,
StopPoint:node:6903347582,5.345935,-3.9457017,Carrefour Akouédo,
StopPoint:node:6903347583,5.3461517,-3.9471732999999998,École,
StopPoint:node:6903347584,5.3458217,-3.9505483,2ème rond-point,
StopPoint:node:6903370485,5.3503400999999995,-4.0227775999999995,Gare en haut,
StopPoint:node:6903374200,5.4210882,-4.0100339,Station,
StopPoint:node:6903374201,5.4196516,-4.00729,Immeuble Cercueil,
StopPoint:node:6903374202,5.4195595,-4.007456299999999,Immeuble Cercueil,
StopPoint:node:6903397403,5.4234507999999995,-3.9978515,Terminus mosquée Ado Kenedy,
StopPoint:node:6903397404,5.421577399999999,-3.9978488999999997,A l'école,
StopPoint:node:6903397405,5.419861699999999,-3.9979408999999997,,
StopPoint:node:6903397406,5.4185867,-3.9980282999999996,Dahico,
StopPoint:node:6903397407,5.4157689,-3.9992242,Étage Noir,
StopPoint:node:6903406997,5.415578,-4.0059533,Samake,
StopPoint:node:6903406998,5.415667099999999,-4.0037419,Eglise,
StopPoint:node:6903504058,5.415458,-4.0037763,Eglise,
StopPoint:node:6903504059,5.415650299999999,-4.0007588,Monastère,
StopPoint:node:6903504060,5.415433999999999,-4.0008192,Monastère,
StopPoint:node:6903504061,5.4157731,-3.9994029999999996,Étage Noir,
StopPoint:node:6903504062,5.4185995,-3.9981731999999996,Dahico,
StopPoint:node:6903525051,5.4339087,-4.027213199999999,Hôtel du centre,
StopPoint:node:6903525052,5.437374999999999,-4.0337387,A la Pompe,
StopPoint:node:6903525053,5.4377181,-4.036061699999999,Dépôt,
StopPoint:node:6903525054,5.4390604,-4.0445275,Anokoi,
StopPoint:node:6903525055,5.439303,-4.044482299999999,Anokoi,
StopPoint:node:6903525056,5.4423639999999995,-4.048014,Marahoué,
StopPoint:node:6903525057,5.4439581,-4.0487972,Agripac,
StopPoint:node:6903525058,5.447851099999999,-4.0510489,Terminus,
StopPoint:node:6903525059,5.447979699999999,-4.0508555,Terminus,
StopPoint:node:6903525060,5.4446544999999995,-4.0489498,Agripac,
StopPoint:node:6903525061,5.442501699999999,-4.0477433,Marahoué,
StopPoint:node:6903525062,5.437971699999999,-4.0360936999999995,Dépôt,
StopPoint:node:6903525063,5.4376377,-4.0338519999999995,A la Pompe,
StopPoint:node:6903525064,5.4367133,-4.030245,Marché de Nuit,
StopPoint:node:6903525065,5.4340417,-4.0268939999999995,Hôtel du centre,
StopPoint:node:6903525066,5.4217027,-4.0181394,Abobo Gare,
StopPoint:node:6903535584,5.3489387,-4.0206447,Complexe,
StopPoint:node:6903544086,5.350347999999999,-4.0224464,Gare en haut,
StopPoint:node:6903544087,5.3481387,-4.0180948,Maternité,
StopPoint:node:6903544088,5.3519133,-4.0140933,Adjamé Liberté,
StopPoint:node:6903544089,5.3547793,-4.0029137,2ème pont,
StopPoint:node:6903544090,5.3301187,-3.9339758999999996,Marché,
StopPoint:node:6903602207,5.426323099999999,-4.0203577,Gendarmerie,
StopPoint:node:6903602208,5.4298703999999995,-4.0233336,Mosquée Blanche,
StopPoint:node:6903602209,5.4332218999999995,-4.0262471,Solibra,
StopPoint:node:6903602210,5.4359152,-4.0288774,Château,
StopPoint:node:6903602211,5.4383387999999995,-4.0383071,A l'escalier,
StopPoint:node:6903602212,5.449791299999999,-4.0521369,PK 18 ancien marché,
StopPoint:node:6903602213,5.422047399999999,-4.0184782,Gare abobo,
StopPoint:node:6903602214,5.426046599999999,-4.0204341999999995,Gendarmerie,
StopPoint:node:6903602215,5.426524,-4.0208376,Gendarmerie Avant le Feu,
StopPoint:node:6903602216,5.4297276,-4.0236152,Mosquée Blanche,
StopPoint:node:6903602217,5.4330817,-4.0264367,Solibra,
StopPoint:node:6903602218,5.4357519,-4.0290698,Château,
StopPoint:node:6903602219,5.4365893,-4.030636299999999,Marché de Nuit,
StopPoint:node:6903602220,5.4380495,-4.0384581,A l'escalier,
StopPoint:node:6903602221,5.4382833999999995,-4.0411411,Nouvelle Gare,
StopPoint:node:6903602222,5.4448006,-4.0493193,Agripac Avant le Feu,
StopPoint:node:6903602223,5.4493883,-4.0520966,Station Total,
StopPoint:node:6903602224,5.4499639,-4.052542,PK 18 ancien marché,
StopPoint:node:6903639366,5.3706298,-3.9761195,Attoban camp,
StopPoint:node:6903639367,5.3694267,-3.9776678,Escalier,
StopPoint:node:6903639368,5.3673899,-3.9794185,Pharmacie Saint Bernard,
StopPoint:node:6903639369,5.3658448,-3.9793174,Garage,
StopPoint:node:6903639370,5.365069,-3.9792552,Polyclinique Sacré-Coeur,
StopPoint:node:6903639371,5.3642087,-3.9790994,Jules ferry,
StopPoint:node:6903639372,5.362115,-3.9788028,Hôtel Manhatan,
StopPoint:node:6903639373,5.3589924,-3.978316,Doraville,
StopPoint:node:6903639374,5.3571667,-3.9780678,Pharmacie Saint ange,
StopPoint:node:6903639375,5.356275,-3.9777617,André Malraux,
StopPoint:node:6903639376,5.3505392,-4.0228250999999995,Gare en haut,
StopPoint:node:6903968407,5.3673437,-3.9797086999999998,Pharmacie Saint Bernard,
StopPoint:node:6903968408,5.3655779,-3.9794498,Carrefour garage,
StopPoint:node:6904171063,5.343795,-4.0345832999999995,Attécoubé Terminus 04,
StopPoint:node:6904171064,5.346448,-4.0345467,,
StopPoint:node:6904171065,5.349062399999999,-4.033957,Marché,
StopPoint:node:6904171066,5.3501256999999995,-4.0323329999999995,Station Afriquia,
StopPoint:node:6904171067,5.3524283,-4.0328135,Carrefour Attecoubé,
StopPoint:node:6904171068,5.3574167,-4.030971699999999,,
StopPoint:node:6904171070,5.3513557,-4.0254169,,
StopPoint:node:6904171071,5.3412757,-4.0261721999999995,Adjamé Santé,
StopPoint:node:6904171072,5.3381159,-4.0258069999999995,Institut National de la Santé Publique,
StopPoint:node:6904171073,5.3318344,-4.0230192,Arrêts tours Administratives,
StopPoint:node:6904171074,5.3266073,-4.0206007999999995,Cité financière Plateau,
StopPoint:node:6904171075,5.3237991,-4.0196512,SIB Alpha 2000,
StopPoint:node:6904171076,5.3206169,-4.0196681,Primature,
StopPoint:node:6904171077,5.3089287,-4.0157481,Résidence Cheick Yacouba Sylla,
StopPoint:node:6904171078,5.3094876,-4.0142576,Marché Treichville,
StopPoint:node:6904171079,5.3109791,-4.0099697,,
StopPoint:node:6904171080,5.3126562999999996,-4.006092,Biafra,
StopPoint:node:6904171081,5.3076251,-3.9933398999999996,Banque Atlantique,
StopPoint:node:6904171082,5.3052787,-3.9888629,Hôtel Hamanieh,
StopPoint:node:6904171083,5.3043423,-3.9869873,Sainte Thérèse,
StopPoint:node:6904171084,5.3064580999999995,-3.9858380999999996,Commissariat du 9 ème,
StopPoint:node:6904188585,5.3088083,-3.9839517,Gare Marcory,
StopPoint:node:6905326498,5.3589119,-4.0281877,Gare Nord,
StopPoint:node:6905326503,5.436626599999999,-4.0307925,Château,
StopPoint:node:6905326504,5.438006,-4.0384056,A l'escalier,
StopPoint:node:6905344262,5.3843543,-4.0219308,Préfecture de Police,
StopPoint:node:6905344263,5.4375564,-4.0351608,Arrêt Centre Bus,
StopPoint:node:6905344264,5.438464499999999,-4.0390169,Terminus 45 À l'escalier,
StopPoint:node:6905344265,5.4378844,-4.035139099999999,Arrêt Centre Bus,
StopPoint:node:6905344266,5.4365245,-4.0299553999999995,Château,
StopPoint:node:6905344267,5.432893099999999,-4.025968499999999,Arrêt,
StopPoint:node:6905344268,5.428411199999999,-4.0222108,Gendarmerie,
StopPoint:node:6905344273,5.3836534,-4.0219627,Préfecture de Police,
StopPoint:node:6905553518,5.4284566,-4.0225102,Gendarmerie,
StopPoint:node:6905553519,5.4327155,-4.026167399999999,,
StopPoint:node:6905719605,5.3485701,-4.0256884,Foire de Chine,
StopPoint:node:6905719606,5.3299376,-4.0206943,Église Méthodiste Unie de Côte d'Ivoire,
StopPoint:node:6905719607,5.3251345,-4.0201163,60 logements Plateau,
StopPoint:node:6905719608,5.3087867,-4.0177138,Hôpital du port,
StopPoint:node:6905719609,5.309728799999999,-4.0148424,Maison du Congres,
StopPoint:node:6905719610,5.3073425,-4.0116929,Pharmacie du Rond-point,
StopPoint:node:6905719611,5.3090218,-4.0069793,,
StopPoint:node:6905719612,5.3080275,-4.0054419999999995,Nanan Yamousso,
StopPoint:node:6905719613,5.3048828,-4.0043543,Paroisse Notre-Dame de Treichville,
StopPoint:node:6905719614,5.3045623,-4.0015648,Pharmacie de l'Entente,
StopPoint:node:6905719615,5.3055251,-3.9988289999999997,Marché de Belleville,
StopPoint:node:6905719616,5.3075214,-3.9931172,Banque Atlantique,
StopPoint:node:6905719617,5.3049722,-3.9887867999999997,Hôtel Hamanieh,
StopPoint:node:6905719618,5.3055778,-3.986118,Commissariat du 9éme,
StopPoint:node:6905719619,5.308097,-3.9847286,Station Shell,
StopPoint:node:6905719620,5.358496499999999,-4.0284151,,
StopPoint:node:6905719621,5.357702,-4.0304950999999996,,
StopPoint:node:6905719622,5.3515438,-4.0321715,Carrefour Attecoubé,
StopPoint:node:6905719623,5.348960099999999,-4.03386,Banque Atlantique,
StopPoint:node:6905719624,5.347110799999999,-4.0344245999999995,Commissariat du 10ᵉ arrondissement,
StopPoint:node:6905719625,5.3437946,-4.0344802,Attécoubé Terminus 04,
StopPoint:node:6905772459,5.325160299999999,-4.0219475,Saint Paul,
StopPoint:node:6905772460,5.3282245,-4.0239746,Immeuble Sogephia Hévéa,
StopPoint:node:6905772461,5.3337809,-4.0245112999999995,Musée du Plateau,
StopPoint:node:6905772466,5.4383593,-4.0160545999999995,Cours Sociaux,
StopPoint:node:6905842302,5.4306274,-4.020108,,
StopPoint:node:6905842305,5.359039699999999,-4.0275685999999995,Gare Nord,
StopPoint:node:6905842307,5.3252327,-4.0224693,Long Champs,
StopPoint:node:6906463287,5.293874,-3.9560101999999997,Gare Koumassi,
StopPoint:node:6906463288,5.2928524,-3.9602508,Pharmacie Ehilie,
StopPoint:node:6906463289,5.2913568,-3.966735,Mosquée,
StopPoint:node:6906463290,5.2956714,-3.980944,Échangeur de Marcory,
StopPoint:node:6906463291,5.2998527,-3.98845,Grand carrefour Marcory,
StopPoint:node:6906463292,5.2998183999999995,-3.9976917,Collège Moderne Autoroute,
StopPoint:node:6906463293,5.2999823,-4.0026734,Gare de Bassam,
StopPoint:node:6906463294,5.301809899999999,-4.003273,Ecobank,
StopPoint:node:6906463296,5.3534011999999995,-4.0155251,Adjamé Liberté,
StopPoint:node:6906507833,5.436589199999999,-4.0124238,BICICI,
StopPoint:node:6906575629,5.3546594,-4.0164466999999995,Adjamé - Liberté,
StopPoint:node:6906575630,5.3631417,-4.0169033,Williams-Ville,
StopPoint:node:6906575631,5.365819699999999,-4.0157829,Carrefour 2 plateaux,
StopPoint:node:6906575632,5.3662557,-4.0156117,,
StopPoint:node:6906575633,5.3716139,-4.0122292999999996,Paillet,
StopPoint:node:6906575634,5.3740689999999995,-4.0112578,,
StopPoint:node:6906575635,5.3898833,-4.005605,,
StopPoint:node:6906575636,5.4045622,-4.0065311,,
StopPoint:node:6906575637,5.4113412,-4.0064187,,
StopPoint:node:6906575638,5.4126483,-4.0064133,ANADER,
StopPoint:node:6906590689,5.4148754,-4.0064263,Samake,
StopPoint:node:6906590691,5.41527,-4.0068417,Samake,
StopPoint:node:6906590692,5.4101482999999995,-4.0063151999999995,Chaîne avion,
StopPoint:node:6906590693,5.4073533,-4.0063867,1ere Boutique,
StopPoint:node:6906590694,5.3659384,-4.0155634,Carrefour 2 plateaux,
StopPoint:node:6906590695,5.3546002,-4.0162927,Adajmé Liberté,
StopPoint:node:6906596960,5.3534513,-4.0155256999999995,Adjamé Liberté,
StopPoint:node:6906596961,5.3100359,-4.006088399999999,Nanan Yamousso,
StopPoint:node:6906596962,5.3054676999999995,-4.0044435,Karwil,
StopPoint:node:6906596963,5.3031308,-4.0036369,Notre-dame,
StopPoint:node:6906596964,5.3003893,-4.0026404,Gare de Bassam,
StopPoint:node:6906596965,5.2998444,-3.9983918,Collège Moderne Autoroute,
StopPoint:node:6906596966,5.2987234,-3.9859636999999997,Cap Sud,
StopPoint:node:6906596967,5.2959350999999995,-3.981013,Échangeur Marcory,
StopPoint:node:6906596968,5.2912433,-3.9675637999999998,Auto-école,
StopPoint:node:6906596969,5.2919737,-3.9644939999999997,,
StopPoint:node:6906596970,5.292783,-3.9610540999999997,Boulangerie,
StopPoint:node:6906699462,5.3790616,-4.0069935999999995,ZOO,
StopPoint:node:6906699463,5.4074152,-4.0065336,1ere Boutique,
StopPoint:node:6906699464,5.372398899999999,-4.0116794,Paillet,
StopPoint:node:6906699465,5.389897899999999,-4.0054621,,
StopPoint:node:6906699466,5.396764699999999,-4.0065121999999995,Arrêt Dokui,
StopPoint:node:6906699467,5.396868899999999,-4.0063445,Arrêt Dokui,
StopPoint:node:6906699468,5.4121402,-4.0062842,ANADER,
StopPoint:node:6906699469,5.4169293,-4.0106347,,
StopPoint:node:6906699470,5.4170815,-4.0106158999999995,,
StopPoint:node:6906699471,5.4197017,-4.0159367999999995,Abobo Mairie,
StopPoint:node:6906699472,5.419751199999999,-4.0156192,Abobo Mairie,
StopPoint:node:6907121506,5.3675641,-4.0235294,Gare Williamsville,
StopPoint:node:6907121507,5.3658243,-4.020703699999999,Mosquée,
StopPoint:node:6907121508,5.3643529,-4.0189161,Croix Bleue,
StopPoint:node:6907121509,5.3576606,-4.0160715,Agban avant le pont,
StopPoint:node:6907121510,5.3501391,-4.0169929,Pharmacie le Belier,
StopPoint:node:6907121511,5.3417335999999995,-4.0230855,Indenié,
StopPoint:node:6907121512,5.3220152,-4.018503,Mairie du Plateau,
StopPoint:node:6907121513,5.3219502,-4.0170059,Institut Français,
StopPoint:node:6907121514,5.3195011999999995,-4.0144649,CNPS,
StopPoint:node:6907121515,5.3088742,-3.9840679999999997,Gare Marcory,
StopPoint:node:6907141795,5.3422089999999995,-4.0033579,RTI,
StopPoint:node:6907141796,5.3459837,-4.0029046,Archibat,
StopPoint:node:6907141797,5.3356901,-4.0007896999999994,Marché de Cocody,
StopPoint:node:6907141798,5.3232894,-4.0021679,Gare Blockauss,
StopPoint:node:6907141799,5.3278237,-4.0013589,Banque Mondiale,
StopPoint:node:6907141800,5.3355267,-4.0007635,Marché de Cocody,
StopPoint:node:6907141801,5.338417199999999,-4.0038072,CIE,
StopPoint:node:6907141802,5.3517449,-4.0021895999999995,Palm Club,
StopPoint:node:6907141803,5.3587491,-4.0274510999999995,Gare Nord,
StopPoint:node:6907147644,5.354368099999999,-4.0180283,Texaco,
StopPoint:node:6907147645,5.3478734999999995,-4.0101289,Pont lycée technique,
StopPoint:node:6907147646,5.344280599999999,-4.0038018,SODEMI,
StopPoint:node:6907147647,5.3404792,-4.0033259,Sgbci,
StopPoint:node:6907147648,5.336444,-3.9999757,Marché de Cocody,
StopPoint:node:6907147649,5.3334363,-4.0003179,PMI,
StopPoint:node:6907147650,5.3280617,-4.00118,Banque mondiale,
StopPoint:node:6907147651,5.323287,-4.0020444,Gare Blockauss,
StopPoint:node:6907154300,5.3528511,-4.0168481,Boulangerie Top baquette,
StopPoint:node:6907154301,5.3472669,-4.0171149999999995,220 logements,
StopPoint:node:6907157792,5.3589598,-4.0273707,Gare Nord,
StopPoint:node:6907157793,5.355978599999999,-4.0213836,Renault,
StopPoint:node:6907157794,5.3534802,-4.0158064,Adjamé Liberté,
StopPoint:node:6907157795,5.339614999999999,-4.0005869999999994,CERAP - INADES,
StopPoint:node:6908599212,5.3464621,-3.9946557,Gare Campus Cocody,
StopPoint:node:6908599213,5.343718,-4.001318599999999,ISTC,
StopPoint:node:6908599215,5.4354971999999995,-4.0153091,Gare Abobo Sogephia,
StopPoint:node:6908618074,5.3456864,-3.9968975999999996,INSAAC,
StopPoint:node:6908618077,5.427395,-4.016795,EPV Konaté,
StopPoint:node:6908618078,5.4286546,-4.014761099999999,Lycée Moderne d'Abobo,
StopPoint:node:6908728765,5.4339702999999995,-4.012329,,
StopPoint:node:6908728766,5.432656,-4.013431,,
StopPoint:node:6908728767,5.4273213,-4.0162121,,
StopPoint:node:6908728771,5.343821,-4.0008199,ISTC,
StopPoint:node:6908728772,5.3462119,-3.9937237999999997,Gare Campus Cocody,
StopPoint:node:6908782549,5.43182,-4.0147115,,
StopPoint:node:6908782550,5.429723,-4.014638,,
StopPoint:node:6908782552,5.3450486999999995,-3.9978675999999997,Cité des Arts,
StopPoint:node:6908782553,5.3466283,-3.9938949999999998,université méthodiste de Côte D'Ivoire,
StopPoint:node:6908914485,5.357415,-4.0160582,,
StopPoint:node:6908914486,5.3491257,-4.0171632,Cours socio éducatif,
StopPoint:node:6908914487,5.3082112,-3.9996571,Piscine d’État de Treichville,
StopPoint:node:6908914488,5.3090397,-3.9839441,Gare Marcory,
StopPoint:node:6908914489,5.3555535999999995,-4.0161239,Boulangerie Top Qualité,
StopPoint:node:6908914490,5.3513262,-4.0170747,Liberté,
StopPoint:node:6908914491,5.3503722,-4.0170975,Pharmacie le Belier,
StopPoint:node:6908914492,5.3418097,-4.0230188,Indenié,
StopPoint:node:6908914493,5.3421743,-4.025647,Banque SIB,
StopPoint:node:6908914494,5.321186,-4.0183783,Bicici plateau,
StopPoint:node:6908914495,5.321624,-4.0167836999999995,Pyramide,
StopPoint:node:6908914496,5.3184312,-4.0145266,Siège Moov,
StopPoint:node:6908914498,5.3641726,-4.018866399999999,Croix Bleue,
StopPoint:node:6908914499,5.3653249,-4.0202826,Infirmerie Sinikeya,
StopPoint:node:6908914500,5.3670874,-4.0235066,Gare Williamsville,
StopPoint:node:6909039462,5.3589877,-4.0318263,Petro Ivoire,
StopPoint:node:6909039464,5.3468602999999995,-4.0257324,Pharmacie Sainte Marie,
StopPoint:node:6909039468,5.3080247,-4.015952599999999,Cité Policière,
StopPoint:node:6909039469,5.2958623,-4.0046789,CHU,
StopPoint:node:6909039470,5.292779299999999,-3.9984496,PTT Km4,
StopPoint:node:6909039471,5.2914467,-3.9957434999999997,Pharmacie Santé Publique,
StopPoint:node:6909108442,5.3585383,-4.0375583,Terminus Cité Fairmont,
StopPoint:node:6909108450,5.305135,-4.0149536,arrêt,
StopPoint:node:6909108451,5.29123,-3.9902016999999996,Services Techniques du District,
StopPoint:node:6909121487,5.3088407,-3.9840126999999996,Gare Marcory,
StopPoint:node:6909208699,5.297125599999999,-4.0074831,Parc des Sports,
StopPoint:node:6909208700,5.2895392999999995,-3.9907809999999997,"SIYOA, Boulevard de Marseille",
StopPoint:node:6909225529,5.361879999999999,-4.0724972,,
StopPoint:node:6909225530,5.3647534,-4.074565199999999,,
StopPoint:node:6909225533,5.3727101,-4.0961792,,
StopPoint:node:6909225534,5.374225699999999,-4.0895635,,
StopPoint:node:6909225535,5.3727219999999996,-4.0867558,Nestlé,
StopPoint:node:6909225536,5.3745633,-4.0781781,Arrêt,
StopPoint:node:6909225537,5.3703886999999995,-4.0796923,,
StopPoint:node:6909225538,5.3683786,-4.078674299999999,,
StopPoint:node:6909225539,5.3670367,-4.0761986,Direction de la Sotra,
StopPoint:node:6909225540,5.3628133,-4.0736156999999995,,
StopPoint:node:6909225541,5.3612471,-4.0702482,,
StopPoint:node:6909225542,5.362301899999999,-4.067870399999999,Lycée Moderne Yopougon Andokoi,
StopPoint:node:6909225543,5.3615148,-4.0667894,Centre Ivoire Couture,
StopPoint:node:6909225544,5.3585831,-4.0278578,Gare Nord,
StopPoint:node:6909225545,5.3146892999999995,-4.0183048999999995,Gare Sud,
StopPoint:node:6909237619,5.2948194,-4.0033954,C.H.U. Treichville,
StopPoint:node:6909237622,5.301826999999999,-3.9881325999999997,Délices de France,
StopPoint:node:6909237623,5.2913004,-3.9900510999999996,Services Techniques du District,
StopPoint:node:6909237624,5.2931333,-3.9994307,PTT Km4,
StopPoint:node:6909237625,5.3023437,-4.0141222999999995,Quincaillerie Générale,
StopPoint:node:6909237626,5.304935599999999,-4.0150089,Arrêt,
StopPoint:node:6909237627,5.308109,-4.0161831999999995,Cité Policière,
StopPoint:node:6909237631,5.3591166999999995,-4.0279602,Gare Nord,
StopPoint:node:6909237632,5.3588759999999995,-4.031996299999999,Station Petro Ivoire,
StopPoint:node:6909237633,5.3582206,-4.0364602,Terminus 02 Cité Fairmont,
StopPoint:node:6909430718,5.3765208,-4.094158,,
StopPoint:node:6909430720,5.3618706,-4.0668847,Gare CTE,
StopPoint:node:6909430721,5.3621938,-4.0678369,Lycée Moderne Yopougon Andokoi,
StopPoint:node:6909430722,5.3607938,-4.0710622,Station Total,
StopPoint:node:6909430723,5.362381999999999,-4.0736571999999995,,
StopPoint:node:6909430724,5.365409,-4.0742996,,
StopPoint:node:6909430725,5.36707,-4.0764347,Direction de la Sotra,
StopPoint:node:6909430726,5.3683719,-4.0788861999999995,,
StopPoint:node:6909430727,5.3690582,-4.080222,Station,
StopPoint:node:6909430728,5.3699698,-4.0819788,,
StopPoint:node:6909430729,5.3741086,-4.0896792,JOMACO,
StopPoint:node:6909430730,5.3741528,-4.0958456,Dépôt Yopougon zone Industrielle,
StopPoint:node:6909521603,5.2645534,-3.9848298,Hôpital Municipal,
StopPoint:node:6909521604,5.2632614,-3.9834323,Groupe Scolaire N'Sikan,
StopPoint:node:6909521605,5.257664999999999,-3.9849267,CIE,
StopPoint:node:6909521606,5.2558751,-3.9956283,arrêt,
StopPoint:node:6909521607,5.26373,-3.9989162,Gestoci,
StopPoint:node:6909521608,5.2704314,-4.0062621,Pont de Vridi,
StopPoint:node:6909521609,5.297835699999999,-4.0143099,"Etablissements Rey, Port",
StopPoint:node:6909521610,5.3005436,-4.0175241,Sicodis,
StopPoint:node:6909521611,5.305037,-4.0231458,Terminus 32,
StopPoint:node:6909521612,5.3069377,-4.0211629,Grand Moulin Abidjan,
StopPoint:node:6909521613,5.3088247,-4.0179278,Hôpital du Pont,
StopPoint:node:6909521614,5.305655,-4.0117363,"Avenue 11, Rue 12, Treichville",
StopPoint:node:6909521615,5.3039938,-4.0111588,"Avenue 15, Rue 12, Treichville",
StopPoint:node:6909521616,5.3040254,-4.0034158,Paroisse Notre Dame,
StopPoint:node:6909521617,5.305657399999999,-3.9987874,Marché Belleville,
StopPoint:node:6909521620,5.3087649,-3.9838717999999997,Gare Marcory,
StopPoint:node:6909546905,5.266603,-3.9871428,Vridi Cité - Terminus 53,
StopPoint:node:6909546906,5.259526,-3.9818252,Pharmacie Vridi Port,
StopPoint:node:6909546907,5.2571616,-3.9892306,Stade de la SIR,
StopPoint:node:6909546908,5.2588247,-3.9978982999999997,Vridi-Iran,
StopPoint:node:6909546909,5.2676511999999995,-4.0031425,"CPMA, Vridi",
StopPoint:node:6909546910,5.277976,-4.008549599999999,PALM-CI,
StopPoint:node:6909546911,5.2821643,-4.0084685,Bolloré,
StopPoint:node:6909546912,5.2864977,-4.008455,Siège SOTRA,
StopPoint:node:6909546913,5.2922709999999995,-4.008424,Arrêt,
StopPoint:node:6909546914,5.296841,-4.013152799999999,Ciment Bélier,
StopPoint:node:6909546915,5.3029572,-4.0212721,Port Autonome Abidjan,
StopPoint:node:6909546916,5.309804,-4.0149741,Maison du Congres,
StopPoint:node:6909546917,5.3059215,-4.0050815,Collège Bosco,
StopPoint:node:6909707221,5.3226268,-4.1045,Niangon Sud à droite,
StopPoint:node:6909707223,5.3233679,-4.1057378,Carrefour Académie,
StopPoint:node:6909707224,5.325714,-4.105934899999999,Caféier,
StopPoint:node:6909707225,5.3311608,-4.1037342,Lubafrique,
StopPoint:node:6909707226,5.3338915,-4.1029765,2ème arrêt ANADOR,
StopPoint:node:6909707227,5.3358783999999995,-4.1014047,Carrefour Anador,
StopPoint:node:6909707228,5.3404237,-4.1004632,Pharmacie Cité Maroc,
StopPoint:node:6909707229,5.3407013999999995,-4.0892462,CIE,
StopPoint:node:6909707230,5.3450164,-4.0892456,,
StopPoint:node:6909707231,5.348131599999999,-4.0875008,Grand Centre,
StopPoint:node:6909707232,5.3540741999999995,-4.0874934,Port-Bouët II,
StopPoint:node:6909707233,5.3561103999999995,-4.0851103,,
StopPoint:node:6909707234,5.360420899999999,-4.0850900999999995,Arrêt,
StopPoint:node:6909707236,5.358950999999999,-4.0277736,Gare Nord,
StopPoint:node:6909707238,5.3147518,-4.0183735,Gare Sud,
StopPoint:node:6909737821,5.3058324,-4.0049374,Feu du Collège Bosco,
StopPoint:node:6909737822,5.3062141,-4.0120606,"Avenue 10, Rue 12, Treichville",
StopPoint:node:6909737824,5.3067759,-4.0211597999999995,Grand Moulin Abidjan,
StopPoint:node:6909737825,5.3033621,-4.021728599999999,Siège Port Autonome Abidjan,
StopPoint:node:6909737826,5.2945614,-4.0095509,Port Autonome Abidjan,
StopPoint:node:6909737827,5.2878677,-4.0082981,Siège SOTRA,
StopPoint:node:6909737828,5.2820276999999995,-4.0083516,Bolloré,
StopPoint:node:6909737829,5.2787,-4.00841,MOVIS,
StopPoint:node:6909737830,5.2705271,-4.0061063,Pont de Vridi,
StopPoint:node:6909812227,5.3309364,-4.0239787,Cité Administrative,
StopPoint:node:6909812228,5.3572641,-4.0849641,Carrefour Zone,
StopPoint:node:6909812229,5.355256499999999,-4.0867444,,
StopPoint:node:6909812230,5.3469666,-4.0880982999999995,Pharmacie Port-Bouët II,
StopPoint:node:6909812231,5.3453455,-4.0891591,,
StopPoint:node:6909812232,5.3400137999999995,-4.0974297,Mosquée du Maroc,
StopPoint:node:6909812233,5.3401847,-4.1003975,Pharmacie Cité Maroc,
StopPoint:node:6909812234,5.3358609999999995,-4.1013081,Carrefour Anador,
StopPoint:node:6909812235,5.3305492,-4.103812,Lubafrique,
StopPoint:node:6909812236,5.3273952,-4.1051263,,
StopPoint:node:6909812237,5.32569,-4.1058531,Caféier,
StopPoint:node:6909812238,5.3226401,-4.1045248,Niangon Sud à droite,
StopPoint:node:6909923471,5.3568101,-4.0739979,Siporex-Sicomex,
StopPoint:node:6909923472,5.3538004,-4.074004599999999,Siporex avant le feu,
StopPoint:node:6909923473,5.3448074,-4.0732897999999995,William-Ponty,
StopPoint:node:6909923474,5.3388868,-4.0732871,Yopougon 16ème Advans,
StopPoint:node:6909923475,5.3326109,-4.0733247,Saguidiba,
StopPoint:node:6909923477,5.3297734,-4.0735526,Gare Yopougon Kouté,
StopPoint:node:6910224899,5.3463096,-3.9936456,Gare Campus Cocody,
StopPoint:node:6910224902,5.3297134,-4.0738578,Gare Yopougon Kouté,
StopPoint:node:6910224905,5.3315586999999995,-4.0735190999999995,Saguidiba,
StopPoint:node:6910224906,5.3344863,-4.0734252,Côte d'Ivoire-Telecom,
StopPoint:node:6910224907,5.338833999999999,-4.0734096,Yopougon 16ème Advans,
StopPoint:node:6910224908,5.3418778,-4.0734078,Saint André lavage,
StopPoint:node:6910224909,5.345666,-4.0734037999999995,William-Ponty,
StopPoint:node:6910224910,5.3540928,-4.074188299999999,Siporex après le feu,
StopPoint:node:6910224911,5.3566819,-4.074177199999999,Siporex-Sicomex,
StopPoint:node:6910272309,5.2678334,-4.0031259,CPMA-Vridi,
StopPoint:node:6910272310,5.2588726,-3.9977641,Vridi-Iran,
StopPoint:node:6910272311,5.2565075,-3.9932472999999997,"SIR, Vridi",
StopPoint:node:6910272312,5.257788199999999,-3.9854581999999996,CIE,
StopPoint:node:6910272313,5.2582659,-3.9824273,"Cité CIE, Vridi",
StopPoint:node:6910272314,5.2600530999999995,-3.9820027999999996,Temple des Vainqueurs,
StopPoint:node:6910272315,5.2644760999999995,-3.9850263,Hôpital Municipal,
StopPoint:node:6910272316,5.2666602,-3.9874196,Terminus Cité Vridi,
StopPoint:node:6910518025,5.3313223,-4.0228166,Cité Administrative,
StopPoint:node:6910584802,5.426785199999999,-4.0201529,Gendarmerie Abobo,
StopPoint:node:6910703473,5.350955,-4.0632851,Institut des aveugles,
StopPoint:node:6910703474,5.3476916,-4.0632757999999995,Bel Air,
StopPoint:node:6910703475,5.3418057,-4.0622364,Complexe sportif de Yopougon,
StopPoint:node:6910703476,5.3380456,-4.0622136,Nouveau quartier,
StopPoint:node:6910703477,5.3333961,-4.0621975,Clinique les Oliviers,
StopPoint:node:6910743309,5.3294751,-4.061462,Terminus 85,
StopPoint:node:6910743310,5.333826,-4.062382599999999,Clinique les Oliviers,
StopPoint:node:6910743311,5.3375141,-4.0623477,Nouveau quartier,
StopPoint:node:6910743312,5.3460439,-4.0634635,Bel Air,
StopPoint:node:6910743313,5.355664399999999,-4.0660061999999995,Sable,
StopPoint:node:6910743314,5.3513983,-4.063447399999999,Institut des aveugles,
StopPoint:node:6910755171,5.3237979,-4.0804794,Ben,
StopPoint:node:6910755172,5.3255979,-4.0764964,Marejea,
StopPoint:node:6910755173,5.3255738,-4.0718266,Iris3,
StopPoint:node:6910755174,5.319873299999999,-4.0802502,Yopougon Sideci - Terminus 42,
StopPoint:node:6910755176,5.3242746,-4.0667291,Marché Kouté,
StopPoint:node:6910755177,5.3236042,-4.0615042,L'usine du camp,
StopPoint:node:6910755178,5.3236336,-4.057731599999999,Stenb,
StopPoint:node:6910755179,5.3222355,-4.0535084999999995,Le petit soleil,
StopPoint:node:6910755180,5.3222274999999994,-4.0507693,Yopougon Kowëit,
StopPoint:node:6910755181,5.322239499999999,-4.046458299999999,La faveur,
StopPoint:node:6910755182,5.3198693,-4.043974599999999,Pharmacie Chenain,
StopPoint:node:6910755183,5.3171339,-4.0439826,Iris 3,
StopPoint:node:6910755184,5.3137348,-4.0440027,Bon choix,
StopPoint:node:6910794085,5.309550499999999,-4.0439558,Santé Village,
StopPoint:node:6910794088,5.3101983,-4.0353389,Gare Abobodoumé,
StopPoint:node:6910797790,5.4258812,-4.01971,Arrêt,
StopPoint:node:6910797791,5.4182684,-4.0128435,Arrêt,
StopPoint:node:6910797792,5.4156089,-4.0054353,Arrêt,
StopPoint:node:6910797793,5.4155902,-3.999584,Arrêt,
StopPoint:node:6910797794,5.4038607,-3.9856156,Termunis 81/82,
StopPoint:node:6910797795,5.4031253999999995,-3.9792072999999997,BICICI,
StopPoint:node:6910797796,5.4011881,-3.9780821,Arrêt,
StopPoint:node:6910797797,5.3988302,-3.9776878,Arrêt,
StopPoint:node:6910797798,5.396342799999999,-3.977036,Arrêt,
StopPoint:node:6910797799,5.3932465999999994,-3.9761992,Arrêt,
StopPoint:node:6910797800,5.3946558,-3.971504,Arrêt,
StopPoint:node:6910797801,5.4000986,-3.9649834999999998,Cité Diaspora,
StopPoint:node:6910797802,5.4025338,-3.9621641999999997,SOCIAM,
StopPoint:node:6910797803,5.402296499999999,-3.9620463,SOCIAM,
StopPoint:node:6910797804,5.399963,-3.9570893,CHU Angré,
StopPoint:node:6910797805,5.4154526999999995,-4.0022782999999995,Arrêt,
StopPoint:node:6910797806,5.3997812,-3.9570173,CHU Angré,
StopPoint:node:6910797807,5.4003923,-3.9592422999999997,Arrêt,
StopPoint:node:6910797808,5.4011774,-3.960527,Arrêt,
StopPoint:node:6910797809,5.3991713,-3.9657399,Arrêt,
StopPoint:node:6910797810,5.3964463,-3.9689626,Arrêt,
StopPoint:node:6910797811,5.3933681,-3.9736087999999996,Arrêt,
StopPoint:node:6910797812,5.3929368,-3.9754414999999996,Arrêt,
StopPoint:node:6910797813,5.395482299999999,-3.9769683,Arrêt,
StopPoint:node:6910797814,5.3963101,-3.9772754,Arrêt,
StopPoint:node:6910797815,5.400356899999999,-3.9781552,Arrêt,
StopPoint:node:6910797816,5.4022415,-3.978471,Arrêt,
StopPoint:node:6910797817,5.402950499999999,-3.9794533999999997,BICICI,
StopPoint:node:6910797818,5.404251599999999,-3.9898295,Arrêt,
StopPoint:node:6910797819,5.4070126,-3.9911934,Saint Ambroise,
StopPoint:node:6910797820,5.4103992,-3.9941237,Arrêt,
StopPoint:node:6910797821,5.4136035,-3.9953287,Arrêt,
StopPoint:node:6912410269,5.3317315,-4.0043771999999995,Lycée Classique d'Abidjan,
StopPoint:node:6912410270,5.3286967999999995,-4.0047695,Hotel Ivoire 2,
StopPoint:node:6912410271,5.327880599999999,-4.0029870999999995,Hotel Ivoire,
StopPoint:node:6912410272,5.3277329,-4.0032565,Hotel Ivoire,
StopPoint:node:6912410273,5.3327048999999995,-4.0045047,Lycée Classique d'Abidjan,
StopPoint:node:6912410274,5.3439798,-4.0037107999999995,SODEMI,
StopPoint:node:6912410275,5.3477876,-4.0095505,Pont lycée technique,
StopPoint:node:6912654329,5.3290976,-4.0751626,Carrefour Express,
StopPoint:node:6912729876,5.358125299999999,-4.0012691,BMW,
StopPoint:node:6912729877,5.3601195,-3.998725,SOCITECH,
StopPoint:node:6912729878,5.3648147999999996,-3.9976353999999996,MACACI,
StopPoint:node:6912729879,5.367356,-3.9983993,Mobil 2 Plateaux,
StopPoint:node:6912729880,5.371804699999999,-3.9984268,Sococé 2 Plateaux,
StopPoint:node:6912729881,5.374547799999999,-3.9985198,BOA,
StopPoint:node:6912729882,5.3755833,-3.9985337999999997,SNEDAI,
StopPoint:node:6912729883,5.3776569,-3.9976312,Carrefour Duncan,
StopPoint:node:6912729884,5.3809527,-3.9943103,Las Palmas,
StopPoint:node:6912805206,5.338820699999999,-4.0792393,Pharmacie du Marché,
StopPoint:node:6912805207,5.3373257999999995,-4.0765581,,
StopPoint:node:6912805208,5.338406099999999,-4.0752894,Patisserie,
StopPoint:node:6912805209,5.3467623,-4.0652525,Ex Chaine Avion Rue Princesse,
StopPoint:node:6912805210,5.3408188999999995,-4.059997399999999,Camp FRCI,
StopPoint:node:6912805211,5.3398829,-4.0572314,,
StopPoint:node:6912805212,5.3373205,-4.0549944,Carrefour Lama Fofana,
StopPoint:node:6912805213,5.3337105,-4.0550185999999995,Banque Atlantique,
StopPoint:node:6912805214,5.3316574999999995,-4.052065499999999,Offoumou Yapo,
StopPoint:node:6912805215,5.329339399999999,-4.0497521,Tizra,
StopPoint:node:6912805216,5.3264792,-4.0494691,,
StopPoint:node:6912805217,5.3247298999999995,-4.0494999,,
StopPoint:node:6912805219,5.3104606,-4.0354465,Gare Abobo Doumé,
StopPoint:node:6912820385,5.3847656,-3.9932407,Carrefour Opéra,
StopPoint:node:6912820386,5.3888111,-3.9927523,Mahikari,
StopPoint:node:6912820387,5.3926338,-3.992269,Ambassade de Chine,
StopPoint:node:6912820388,5.394215399999999,-3.9921140999999998,Les Oscars,
StopPoint:node:6912820389,5.3964545,-3.9918229999999997,BHCI,
StopPoint:node:6912820390,5.4005168999999995,-3.9914408,Shawarma House,
StopPoint:node:6912820391,5.4038172,-3.9909124,Petro Ivoire,
StopPoint:node:6912820392,5.4042033,-3.9882535,Notre Dame,
StopPoint:node:6912820393,5.4034748,-3.9819806,FIRDA,
StopPoint:node:6912820394,5.4033098,-3.9765606,"Ancien Terminus 90, Les Arcades",
StopPoint:node:6912820395,5.4006902,-3.9728353999999997,Soleil 2,
StopPoint:node:6912820396,5.3971938999999995,-3.9694727,Clinique Médicale Sainte Justine,
StopPoint:node:6912820397,5.3998522,-3.9648828999999997,Cité Diaspora,
StopPoint:node:6912820398,5.3972237,-3.9697282,Clinique Médicale Sainte Justine,
StopPoint:node:6912820399,5.4031598,-3.9764212999999997,"Ancien Terminus 90, Les Arcades",
StopPoint:node:6912820400,5.4033207999999995,-3.9820585,FIRDA,
StopPoint:node:6912820401,5.4037771999999995,-3.9856792999999997,Termunis 81/82,
StopPoint:node:6912820402,5.4041375,-3.9887433999999997,Notre Dame,
StopPoint:node:6912820403,5.4037567,-3.9906881999999997,Petro Ivoire,
StopPoint:node:6912820404,5.400296099999999,-3.9911377,Carrefour 22è,
StopPoint:node:6912820405,5.3965825,-3.9915941,BHCI,
StopPoint:node:6912820406,5.3925854,-3.9920934,Ambassade de Chine,
StopPoint:node:6912820407,5.3895653999999995,-3.9924668,Mahikari,
StopPoint:node:6912820408,5.3845481,-3.9930996,Opéra,
StopPoint:node:6912820409,5.3809502,-3.9940545999999997,Las Palmas,
StopPoint:node:6912820410,5.3779505,-3.9970643999999997,Carrefour Duncan,
StopPoint:node:6912820411,5.375347199999999,-3.9983567,Le Roi du Pain,
StopPoint:node:6912820412,5.3725252,-3.9983399,Sococé 2 Plateaux,
StopPoint:node:6912820413,5.3677225,-3.9981432,Mobil 2 Plateaux,
StopPoint:node:6912820414,5.3654376,-3.9973647999999997,MACACI,
StopPoint:node:6912820415,5.3574699,-4.001239099999999,Saint Jacques,
StopPoint:node:6912820416,5.3525544,-4.0018639,Palm Club,
StopPoint:node:6912820417,5.3493692,-4.0022742,Carrefour la Vie,
StopPoint:node:6912820418,5.344562,-4.0028093,Arrêt,
StopPoint:node:6913011676,5.326607399999999,-4.0255437999999995,Sitarail,
StopPoint:node:6913011677,5.3293875,-4.073499,Gare Yopougon Kouté,
StopPoint:node:6913190443,5.3134744,-4.0441328,Bon choix,
StopPoint:node:6913190444,5.308711199999999,-4.043768,Santé Village,
StopPoint:node:6913190445,5.3166799,-4.0440879,,
StopPoint:node:6913190446,5.3208014,-4.0441167,,
StopPoint:node:6913190447,5.3221153999999995,-4.0468310999999995,,
StopPoint:node:6913190448,5.323918,-4.049644799999999,,
StopPoint:node:6913190449,5.3270840999999995,-4.0503167,Commissariat de Police du 19ᵉ Arrondissement,
StopPoint:node:6913190450,5.329579799999999,-4.0501732,Tizra,
StopPoint:node:6913190451,5.3313998,-4.0519957,Offoumou Yapo,
StopPoint:node:6913190452,5.3337753,-4.0550937,La Poste,
StopPoint:node:6913190453,5.3369773,-4.055092999999999,Pharmacie Sacré-cœur,
StopPoint:node:6913190454,5.3401473,-4.058547,Pharmacie Béatitude,
StopPoint:node:6913190455,5.340736199999999,-4.0608235,Nouveau quartier,
StopPoint:node:6913190456,5.346616699999999,-4.0650474,Ex Chaine Avion Rue Princesse,
StopPoint:node:6913190457,5.3447353,-4.0678006,Newton,
StopPoint:node:6913190458,5.3395304,-4.0745628,Marche Sicogi,
StopPoint:node:6913190459,5.337992799999999,-4.0751928,Patisserie,
StopPoint:node:6913190460,5.3372573999999995,-4.0770330999999995,Pharmacie du Marché,
StopPoint:node:6913190461,5.3372711,-4.0806585,Terrain Sogefiha,
StopPoint:node:6913201897,5.333541599999999,-4.0733125999999995,Antenne,
StopPoint:node:6913201898,5.3290163,-4.0757574,Kbine Bleu,
StopPoint:node:6913201899,5.324332699999999,-4.0799806,Akadjoba,
StopPoint:node:6913201900,5.323919399999999,-4.0871835999999995,Saint Pierre,
StopPoint:node:6913201901,5.3233739,-4.0925668,EPP Niangon,
StopPoint:node:6913201902,5.3197171,-4.0944323,Arrêt,
StopPoint:node:6913201903,5.316370099999999,-4.0947904,Arrêt,
StopPoint:node:6913201904,5.3152357,-4.092899399999999,Arrêt Yop 38,
StopPoint:node:6913201907,5.315995,-4.090033399999999,Terminus 27,
StopPoint:node:6913201908,5.3150642999999995,-4.0934497,Arrêt,
StopPoint:node:6913201909,5.3172602,-4.0948509,EPP SICOGI Niangon Sud,
StopPoint:node:6913201910,5.3202551,-4.0943198999999995,Carrefour Marché,
StopPoint:node:6913201911,5.3233885,-4.0926667,EPP Niangon,
StopPoint:node:6913201912,5.3240967,-4.0869618999999995,Saint Pierre,
StopPoint:node:6913201913,5.3247411,-4.0797694,Akadjoba,
StopPoint:node:6913201914,5.3287702,-4.0762905,Arrêt de bus,
StopPoint:node:6913201915,5.3146172,-4.018495199999999,Gare Sud,
StopPoint:node:6913291219,5.314498599999999,-4.0183564,Gare Sud,
StopPoint:node:6913703797,5.329485,-3.9977011,CNTG-BNETD,
StopPoint:node:6913703798,5.3310059,-3.9970399,UCAO,
StopPoint:node:6913703799,5.3350719,-3.9973538,Maison du Parti,
StopPoint:node:6913703800,5.308493599999999,-3.9997195,Piscine d’État de Treichville,
StopPoint:node:6913703801,5.3074734,-3.990551,NSIA,
StopPoint:node:6913703802,5.308696599999999,-3.9837713999999997,Gare Marcory,
StopPoint:node:6913703803,5.335365599999999,-3.9975172,Maison du Parti,
StopPoint:node:6913703804,5.331031299999999,-3.9969162,UCAO,
StopPoint:node:6913703805,5.3293836,-3.9976803999999997,CNTG-BNETD,
StopPoint:node:6913857608,5.3556761,-4.065843699999999,Sable,
StopPoint:node:6913857611,5.3407344,-4.0646331,"Complexe Sportif, Yopougon",
StopPoint:node:6913857612,5.3424008999999995,-4.0665987,Mairie de Yopougon,
StopPoint:node:6913929664,5.3443401,-4.0375561,La Marine,
StopPoint:node:6913929665,5.3278599,-4.0262003,Sitarail,
StopPoint:node:6913929666,5.314627199999999,-4.0182404,Gare Sud,
StopPoint:node:6913929668,5.344185899999999,-4.0376761,La Marine,
StopPoint:node:6913929669,5.3295615,-4.0737135,Gare Yopougon Kouté,
StopPoint:node:6913931703,5.336709099999999,-4.0216157,Gendarmerie,
StopPoint:node:6913974340,5.3369705,-4.0217222,Gendarmerie,
StopPoint:node:6915341517,5.400545,-3.9728972,Soleil 2,
StopPoint:node:6915341518,5.4035247,-3.9837323,Arrêt,
StopPoint:node:6915341519,5.4062326,-3.9906835999999997,Arrêt,
StopPoint:node:6915341520,5.4297268999999995,-3.9894233999999997,Arrêt,
StopPoint:node:6915341521,5.4313416,-3.9891221999999997,Arrêt,
StopPoint:node:6915341523,5.4564179,-3.9725804,Abobo Biabou,
StopPoint:node:6915341525,5.4564283,-3.9726481999999996,Abobo Biabou,
StopPoint:node:6915341526,5.4454571,-3.9781839999999997,Arrêt,
StopPoint:node:6915341527,5.4430187,-3.9810371,Arrêt,
StopPoint:node:6915341528,5.441542999999999,-3.9831075,Arrêt,
StopPoint:node:6915341529,5.4403681,-3.9847859,Arrêt,
StopPoint:node:6915341530,5.4391313,-3.9859782999999998,Arrêt,
StopPoint:node:6915341531,5.4368688,-3.9875152999999997,Arrêt,
StopPoint:node:6915341532,5.4356843,-3.9879909999999996,Arrêt,
StopPoint:node:6915341533,5.434457,-3.9883618999999997,Arrêt,
StopPoint:node:6915341534,5.4327625,-3.9887503,Arrêt,
StopPoint:node:6915341535,5.4312302,-3.9889419,Arrêt,
StopPoint:node:6915341536,5.4293214999999995,-3.9892581,Arrêt,
StopPoint:node:6915341537,5.4264243,-3.9896960999999997,Arrêt,
StopPoint:node:6915341538,5.4229496,-3.9902515,Arrêt,
StopPoint:node:6915341539,5.4208149,-3.9905681,Arrêt,
StopPoint:node:6915341540,5.4195345,-3.9907253999999996,Arrêt,
StopPoint:node:6915341541,5.4182159,-3.9909298,Arrêt,
StopPoint:node:6915341542,5.4158878,-3.9922122,Arrêt,
StopPoint:node:6915341543,5.4154922999999995,-3.9928597,Arrêt,
StopPoint:node:6915341544,5.414820499999999,-3.9947036,Arrêt,
StopPoint:node:6915341545,5.4141246999999995,-3.9952878999999997,Arrêt,
StopPoint:node:6915341546,5.409530999999999,-3.9932261999999996,Arrêt,
StopPoint:node:6915341547,5.4050885,-3.990564,Petro Ivoire,
StopPoint:node:6915341548,5.403643,-3.9829561,Arrêt,
StopPoint:node:6915341549,5.4033522,-3.9807645,Arrêt,
StopPoint:node:6915487638,5.3585446,-3.96346,9 Kilo,
StopPoint:node:6915487639,5.360974,-3.9586683,Rond-Point de la Palmeraie,
StopPoint:node:6915487640,5.3606149,-3.9598948,Carrefour de la Gendarmerie,
StopPoint:node:6915487641,5.3568703,-3.9665508,Cap Nord,
StopPoint:node:6915487642,5.353259899999999,-3.9779823999999997,Riviéra 2,
StopPoint:node:6915487643,5.350229199999999,-3.9881887,École de Police,
StopPoint:node:6915487644,5.349223299999999,-3.9943092,École de la Gendarmerie,
StopPoint:node:6915487645,5.348552199999999,-4.0018322,Carrefour de la Vie,
StopPoint:node:6915647682,5.4217637,-4.0185375,Mairie d'ABOBO,
StopPoint:node:6915647683,5.4270593,-4.0212736,Arrêt,
StopPoint:node:6915647684,5.4303911,-4.0241622,Arrêt,
StopPoint:node:6915696792,5.358763499999999,-3.9635458999999997,9 Kilo,
StopPoint:node:6915696795,5.359604699999999,-3.9620357999999998,Chic Shop,
StopPoint:node:6915696796,5.3574857,-3.9657801999999998,Cap Nord,
StopPoint:node:6915696797,5.3504609,-3.9881604999999998,École de Police,
StopPoint:node:6915696798,5.3494956,-3.9916044,Carrefour CHU,
StopPoint:node:6915696799,5.3493834,-3.9944569999999997,École de la Gendarmerie,
StopPoint:node:6915696800,5.3485982,-4.002964899999999,Carrefour de la Vie,
StopPoint:node:6915722685,5.4333404,-4.0266778,Arrêt,
StopPoint:node:6915722686,5.4390732999999996,-4.0446976999999995,Anokoi,
StopPoint:node:6915722687,5.4434752,-4.0485036,PK 18 Agripac,
StopPoint:node:6915722688,5.4482915,-4.0512502,Arrêt,
StopPoint:node:6915722689,5.450353499999999,-4.052990299999999,Arrêt,
StopPoint:node:6915722690,5.4565524,-4.0545715,Arrêt,
StopPoint:node:6915722691,5.457444799999999,-4.054497,Arrêt,
StopPoint:node:6915722692,5.465097999999999,-4.0544278,Arrêt,
StopPoint:node:6915722693,5.4662168,-4.0540278999999995,Arrêt,
StopPoint:node:6915722694,5.4680953,-4.0530973999999995,Arrêt,
StopPoint:node:6915722695,5.4794949,-4.0538658,Arrêt,
StopPoint:node:6915722696,5.4828953,-4.0513357999999995,Arrêt,
StopPoint:node:6915722697,5.4837187,-4.0513476,Arrêt,
StopPoint:node:6915722698,5.4866626,-4.05146,Arrêt,
StopPoint:node:6915722699,5.489059699999999,-4.0515593,Arrêt,
StopPoint:node:6915722700,5.490427899999999,-4.0516046999999995,Arrêt,
StopPoint:node:6915722701,5.490914999999999,-4.0516233,Arrêt,
StopPoint:node:6915722702,5.4914502999999995,-4.051639,Arrêt,
StopPoint:node:6915722703,5.4928779,-4.0516635999999995,Arrêt,
StopPoint:node:6915722704,5.4940805,-4.0517658,Arrêt,
StopPoint:node:6915722705,5.495095,-4.0517794,Arrêt,
StopPoint:node:6915722706,5.4960474,-4.0516644,Arrêt,
StopPoint:node:6915722707,5.4970767,-4.0515036,Arrêt,
StopPoint:node:6915722708,5.497669,-4.051438,Arrêt,
StopPoint:node:6915722709,5.4979794,-4.0513918,Arrêt,
StopPoint:node:6915722710,5.4995750999999995,-4.0516497,Arrêt,
StopPoint:node:6915722711,5.500507,-4.0519247,Arrêt,
StopPoint:node:6915722712,5.5011338,-4.0520933999999995,Arrêt,
StopPoint:node:6915722713,5.501598899999999,-4.0522124999999996,Arrêt,
StopPoint:node:6915722714,5.5026911,-4.0525268,Arrêt,
StopPoint:node:6915722715,5.5045432,-4.0530593999999995,Arrêt,
StopPoint:node:6915722716,5.505344399999999,-4.0532829,Arrêt,
StopPoint:node:6915722717,5.506459899999999,-4.0531365,Mairie d'Anyama,
StopPoint:node:6915722719,5.5064063999999995,-4.0530408,Mairie d'Anyama,
StopPoint:node:6915722720,5.4976427,-4.0513828,Arrêt,
StopPoint:node:6915722721,5.5027177,-4.0523687,Arrêt,
StopPoint:node:6915722722,5.4994894,-4.0514357,Arrêt,
StopPoint:node:6915722723,5.4949787,-4.0516383,Arrêt,
StopPoint:node:6915722724,5.4888603,-4.051407,Arrêt,
StopPoint:node:6915722725,5.4863031,-4.0513417,Arrêt,
StopPoint:node:6915722726,5.4825896,-4.0512201,Arrêt,
StopPoint:node:6915722727,5.4799549999999995,-4.0531887,Arrêt,
StopPoint:node:6915722728,5.4757466,-4.0552147,Arrêt A l'Ecole,
StopPoint:node:6915722729,5.470731,-4.0531044,Arrêt Contrôle,
StopPoint:node:6915722730,5.4669354,-4.0534140999999995,Arrêt,
StopPoint:node:6915722731,5.4611068,-4.0537589999999994,Arrêt Ancienne Gendarmerie,
StopPoint:node:6915722732,5.452617399999999,-4.0544875,Arrêt,
StopPoint:node:6915722733,5.4503748,-4.0526523,Arrêt Ancien Marché,
StopPoint:node:6915722734,5.4483606,-4.0510763999999995,Arrêt Terminus,
StopPoint:node:6915722735,5.4449974,-4.049142499999999,Arrêt Agripac,
StopPoint:node:6915722736,5.4436482,-4.0484067,Arrêt,
StopPoint:node:6916152424,5.28758,-4.0057551,Terminus dépôt SOTRA,
StopPoint:node:6916152425,5.2890666,-4.0084018,Pharmacie Port-Bouet,
StopPoint:node:6916152426,5.2961662,-4.0033565,Arrêt du CHU,
StopPoint:node:6916152427,5.2991407,-4.0024808,Gare de Bassam,
StopPoint:node:6916181080,5.3478959,-4.0026565,Arrêt,
StopPoint:node:6916181081,5.3700062,-3.9983307999999997,Grande Pharmacie /Terminus 300FCFA,
StopPoint:node:6916280433,5.4157357,-3.9930971,Arrêt,
StopPoint:node:6916280434,5.4149934,-3.9940211,Terminus Abobo Baoulé,
StopPoint:node:6916280435,5.4129627,-3.9948875,Pharmacie Actuelle,
StopPoint:node:6916280436,5.4103430999999995,-3.9939446999999997,Arrêt,
StopPoint:node:6916280437,5.4085794,-3.9923862999999997,Arrêt,
StopPoint:node:6916280438,5.4071215,-3.9910921,Saint Ambroise,
StopPoint:node:6916280439,5.4055233,-3.990494,Arrêt,
StopPoint:node:6916280440,5.4011787,-3.9910264,Arrêt,
StopPoint:node:6916280441,5.399202,-3.9912805999999996,Carrefour 22è,
StopPoint:node:6916280442,5.3973362,-3.9915239999999996,SODECI,
StopPoint:node:6916280443,5.3945042999999995,-3.9918310999999997,Paris Baguette,
StopPoint:node:6916280444,5.387512699999999,-3.9927256,Arrêt,
StopPoint:node:6916280445,5.3797969,-3.9952143999999996,Arrêt,
StopPoint:node:6916280446,5.3737207,-3.9983541999999996,NSIA,
StopPoint:node:6916280447,5.3700155,-3.9981215999999997,SGBGI,
StopPoint:node:6916280448,5.3465272,-4.0025645999999995,Cité BAD,
StopPoint:node:6916280449,5.3386878,-4.0035403,CIE,
StopPoint:node:6917146061,5.3065218,-3.9865047,Commissariat du 9 ème,
StopPoint:node:6917146062,5.3061086,-3.9857063,Commissariat du 9 ème,
StopPoint:node:6917146063,5.3034178999999995,-3.9807831,King Cash,
StopPoint:node:6917146064,5.3015677,-3.9776046999999997,Cabinet Médical du 3ème pont,
StopPoint:node:6917146065,5.3005869,-3.9757914999999997,Marché de Marcory,
StopPoint:node:6917146066,5.298625899999999,-3.9722389,Paroisse Sainte Bernadette,
StopPoint:node:6917146067,5.2982013,-3.9714764999999996,Pharmacie Bagoué,
StopPoint:node:6917146068,5.2968312,-3.9688084,Banque of Africa,
StopPoint:node:6917146069,5.2965895,-3.9650103,Arrêt,
StopPoint:node:6917146070,5.2975636,-3.9608220999999997,Arrêt,
StopPoint:node:6917146071,5.2983628,-3.9572333,Place Inchallah,
StopPoint:node:6917146072,5.2992706,-3.9531435999999998,Koumassi Prodomo,
StopPoint:node:6917146073,5.3001328999999995,-3.9494388,Gare Mesano,
StopPoint:node:6917146074,5.3008577,-3.9476752,Koumassi Mesano,
StopPoint:node:6917146075,5.3002934999999995,-3.9483867,Koumassi Mesano,
StopPoint:node:6917146076,5.2998074,-3.9505841,Station Petro Ivoire,
StopPoint:node:6917146077,5.298949599999999,-3.9543701999999996,Palce Inchallah,
StopPoint:node:6917146078,5.2980163,-3.9585451,Arrêt,
StopPoint:node:6917146079,5.2972737,-3.9619419,Arrêt,
StopPoint:node:6917146080,5.2962808,-3.9660523,Arrêt,
StopPoint:node:6917146081,5.296728,-3.9687628999999998,Banque of Africa,
StopPoint:node:6917146082,5.2980069,-3.9712862999999996,Pharmacie Bagoué,
StopPoint:node:6917146083,5.300615,-3.9760118999999996,Marché de Marcory,
StopPoint:node:6917146084,5.301658499999999,-3.9778784999999997,Cabinet Médical du 3ème pont,
StopPoint:node:6917151685,5.3044464,-3.9828403999999997,Arrêt,
StopPoint:node:6917151686,5.306216099999999,-3.9860886,Commissariat du 9 ème,
StopPoint:node:6917151687,5.3077309,-3.9888489999999996,Arrêt,
StopPoint:node:6917151688,5.3084636,-3.9904412999999996,Yan Auto Ecole,
StopPoint:node:6919194336,5.3106101,-4.0352896,Gare Abobodoumé,
StopPoint:node:6919312942,5.3270854,-4.0923844,Cité Bracodi Rte Cité verte,
StopPoint:node:6919312943,5.332209,-4.1119954,Cité Verte,
StopPoint:node:6919312945,5.3316148,-4.109973,Collège Sebaco,
StopPoint:node:6919312946,5.3306787,-4.1058974,Cité Bracodi Rte Cité verte,
StopPoint:node:6919312947,5.3296893,-4.1035223,Banque BNI,
StopPoint:node:6919312948,5.328424099999999,-4.1005389999999995,Le repère,
StopPoint:node:6919312949,5.3278004999999995,-4.097620099999999,Carrefour de Niangon,
StopPoint:node:6919312950,5.324154699999999,-4.0812954,Akadjoba,
StopPoint:node:6919312951,5.3103655,-4.0351267,Gare Abobodoumé,
StopPoint:node:6919327587,5.322126,-4.053652,Le petit soleil,
StopPoint:node:6919327588,5.3235388,-4.0573213,Blé Doré,
StopPoint:node:6919327589,5.324122399999999,-4.0669544,Marché Kouté,
StopPoint:node:6919327590,5.3251706,-4.0710314,Carrefour Kouté,
StopPoint:node:6919327591,5.325455,-4.0761933,Marejea,
StopPoint:node:6919327593,5.323864599999999,-4.0818366,Akadjoba,
StopPoint:node:6919327594,5.3264404999999995,-4.0914322,,
StopPoint:node:6919327595,5.327729,-4.0976496,Carrefour de Niangon,
StopPoint:node:6919327596,5.328356599999999,-4.1005785999999995,Le repère,
StopPoint:node:6919327597,5.3295851,-4.1035169,Top Qualitée,
StopPoint:node:6919327598,5.3307695,-4.1063239,Cité Bracodi Rte Cité verte,
StopPoint:node:6919758025,5.2982594,-3.9831407,Arrêt,
StopPoint:node:6919758026,5.296130799999999,-3.9792079,Arrêt,
StopPoint:node:6919758027,5.294562399999999,-3.9763808999999997,Arrêt,
StopPoint:node:6919758028,5.293456,-3.9743974,Arrêt,
StopPoint:node:6919758029,5.2927669,-3.9712223,Arrêt,
StopPoint:node:6919758030,5.2932236,-3.9690282999999997,Arrêt,
StopPoint:node:6919758031,5.2940469,-3.965347,Arrêt,
StopPoint:node:6919758032,5.2951953,-3.9603108,Arrêt,
StopPoint:node:6919758033,5.296132399999999,-3.9565101,Arrêt,
StopPoint:node:6919758034,5.297599,-3.9526269,Arrêt,
StopPoint:node:6919758035,5.2987063999999995,-3.9478318,Arrêt,
StopPoint:node:6919758036,5.3015424,-3.9469643999999997,Station Petro Ivoire,
StopPoint:node:6919758037,5.3043266,-3.9453758999999997,Arrêt,
StopPoint:node:6919758038,5.3080061999999995,-3.946713,Bon Samaritain,
StopPoint:node:6919758039,5.3099761999999995,-3.9473403,Pharmacie Fanny,
StopPoint:node:6919758040,5.3109106,-3.9466942,Patisserie MC,
StopPoint:node:6919758041,5.311165,-3.9450345999999996,Terminus 05 Lycée Municipal de Koumassi,
StopPoint:node:6924851825,5.3023336,-4.0106321,"Avenue 19, Rue 12, Treichville",
StopPoint:node:6924851826,5.3047639,-4.0115547,FIESTA,
StopPoint:node:6924851828,5.3028704,-4.0006756999999995,Treichville Entente,
StopPoint:node:6924851829,5.3015791,-4.0016802,Nostalgie,
StopPoint:node:6924851830,5.300882,-4.0035549999999995,Banque Bicici,
StopPoint:node:6924851831,5.299959299999999,-4.0062869,,
StopPoint:node:6924851833,5.3586294,-4.0277536,Gare Nord,
StopPoint:node:6924979791,5.3025272,-4.0106307,"Avenue 19, Rue 12, Treichville",
StopPoint:node:6924979792,5.3029946,-4.0062426,Pharmacie de l'Avenue 27,
StopPoint:node:6924979794,5.3032777,-4.0008245,Treichville Entente,
StopPoint:node:6926746685,5.329623799999999,-4.0208888,,
StopPoint:node:6926746686,5.330987599999999,-4.0236032,Terminus tours Administratives,
StopPoint:node:6926746688,5.3149603,-4.018979,Terminus Gare Sud,
StopPoint:node:6926746689,5.301804799999999,-4.0096435999999995,Station Total,
StopPoint:node:6926746749,5.4538834,-3.9737989,Arrêt,
StopPoint:node:6926746750,5.438545599999999,-3.9864522,Arrêt,
StopPoint:node:6926746751,5.4222388,-3.9903196999999997,Arrêt,
StopPoint:node:6926746752,5.415454899999999,-3.9996625999999997,Arrêt,
StopPoint:node:6926746753,5.4154484,-4.0016378,Arrêt,
StopPoint:node:6926746754,5.4155231,-4.005404899999999,Arrêt,
StopPoint:node:6926746755,5.415269599999999,-4.0071858,Samake,
StopPoint:node:6926746757,5.3590439,-4.0280449,Gare Nord,
StopPoint:node:6926746758,5.4155963,-4.0019605,Arrêt,
StopPoint:node:6926746759,5.4156232,-3.9928882,Arrêt,
StopPoint:node:6926746760,5.419660299999999,-3.9908192999999996,Arrêt,
StopPoint:node:6926746761,5.422222,-3.9904401,Arrêt,
StopPoint:node:6926746762,5.4265156999999995,-3.9898618999999997,Arrêt,
StopPoint:node:6926746763,5.43368,-3.9886815999999996,Arrêt,
StopPoint:node:6926746764,5.437405399999999,-3.9873448999999996,Arrêt,
StopPoint:node:6926746765,5.4402786,-3.9850082,Arrêt,
StopPoint:node:6926746766,5.443381,-3.9807702999999997,Arrêt,
StopPoint:node:6926746767,5.4451883,-3.9785568999999996,Arrêt,
StopPoint:node:6926943107,5.3079127,-3.9465969999999997,Bon Samaritain,
StopPoint:node:6926943108,5.3050831,-3.9451392,Pharmacie Campement,
StopPoint:node:6926943109,5.3011838,-3.9835873,Hôpital Général de Marcory,
StopPoint:node:6926943110,5.3034579,-4.004664099999999,Pharmacie Notre-Dame,
StopPoint:node:6926943111,5.3146776,-4.018563299999999,Gare Sud,
StopPoint:node:6926943112,5.3311928,-4.0236086,Terminus tours Administratives,
StopPoint:node:6927022357,5.3051694,-3.9840318,,
StopPoint:node:6927037611,5.4159386,-3.9930649,Arrêt,
StopPoint:node:6927037612,5.408251,-4.006340499999999,Arrêt,
StopPoint:node:6927037613,5.4057129,-4.0063848,Arrêt,
StopPoint:node:6927037614,5.4013897,-4.0064518,Arrêt,
StopPoint:node:6927037615,5.3930717,-4.0057893,Arrêt,
StopPoint:node:6927037616,5.3875774,-4.0056726,Arrêt,
StopPoint:node:6927037617,5.3801858,-4.0066168,Arrêt,
StopPoint:node:6927037618,5.3625903,-4.0168427,Arrêt,
StopPoint:node:6927037619,5.350357799999999,-4.0169801,Pharmacie le Belier,
StopPoint:node:6927037620,5.3456673,-4.017835799999999,Fraternité Matin,
StopPoint:node:6927037621,5.3411247,-4.0237561,Arrêt,
StopPoint:node:6927037622,5.337275099999999,-4.0237963,Arrêt,
StopPoint:node:6927037623,5.3339228,-4.0238252,Arrêt,
StopPoint:node:6927037625,5.331013899999999,-4.0238251,Terminus tours Administratives,
StopPoint:node:6927037626,5.3339514999999995,-4.0238860999999995,Arrêt,
StopPoint:node:6927037627,5.3377117,-4.0238741,Arrêt,
StopPoint:node:6927037628,5.3557539,-4.0161668,Arrêt,
StopPoint:node:6927037629,5.379605,-4.0068716,Arrêt,
StopPoint:node:6927037630,5.386285,-4.0059958,Arrêt,
StopPoint:node:6927037631,5.4018603,-4.0065437,Arrêt,
StopPoint:node:6927037633,5.4158855,-3.9933256999999998,Abobo Belleville,
StopPoint:node:6927327302,5.3434193,-4.0125125,Arrêt,
StopPoint:node:6927327303,5.346265,-4.0103402,Arrêt,
StopPoint:node:6927327304,5.3494085,-4.0088409,Arrêt,
StopPoint:node:6927327305,5.3529759,-4.0044479,Arrêt,
StopPoint:node:6927327306,5.4043844,-3.989773,Arrêt,
StopPoint:node:6927327307,5.4048944,-3.9851482999999996,Arrêt,
StopPoint:node:6927327308,5.4082837999999995,-3.9867901,Arrêt,
StopPoint:node:6927327309,5.407261,-3.9890592,Arrêt,
StopPoint:node:6927327310,5.3528041,-4.0043218,Arrêt,
StopPoint:node:6927327311,5.3493597,-4.0085859,Arrêt,
StopPoint:node:6927327312,5.3461658,-4.0102683,Arrêt,
StopPoint:node:6927327313,5.3433535999999995,-4.0124663,Polyclinique,
StopPoint:node:6927327314,5.3147983,-4.0186967,Gare Sud,
StopPoint:node:6927330411,5.3022414,-3.9464354,Campement,
StopPoint:node:6927330412,5.3120389,-3.9450814999999997,Terminus 05 Lycée Municipal de Koumassi,
StopPoint:node:6927330413,5.3099837999999995,-3.9472560999999997,Pharmacie Fanny,
StopPoint:node:6927330414,5.3362229,-4.0047298,,
StopPoint:node:6927330416,5.3462362,-3.9938502999999996,Gare Campus Cocody,
StopPoint:node:6927544633,5.346124,-3.9972611999999996,INSAAC,
StopPoint:node:6927544634,5.3359628,-4.0030417,Saint Jean,
StopPoint:node:6927544636,5.3358129,-4.0029552,Saint Jean,
StopPoint:node:6927544637,5.348268699999999,-3.9970998,Gendarmerie,
StopPoint:node:6927600976,5.3536864,-4.0175371,,
StopPoint:node:6927600977,5.356730499999999,-4.0250561,Mirador,
StopPoint:node:6927631763,5.3566458,-4.0241115,Arrêt SICOGI,
StopPoint:node:6927694921,5.3592856,-4.0275494,Gare Nord,
StopPoint:node:6927701716,5.3471068,-3.997229,,
StopPoint:node:6928179123,5.3534453,-3.9700449,Terminus Riviera 2,
StopPoint:node:6928179124,5.353398299999999,-3.9736350999999996,Cité étudiante Riviera 2,
StopPoint:node:6928179125,5.352592899999999,-3.9780678,Riviera 2,
StopPoint:node:6928179126,5.3512739,-3.9805625,Petite Mosquée Riviéra Jardin,
StopPoint:node:6928250859,5.3516026,-3.9803498999999998,Petite Mosquée Riviéra Jardin,
StopPoint:node:6928250860,5.3526374,-3.9781866999999997,Riviera 2,
StopPoint:node:6928250861,5.3530767,-3.9761320999999996,Cité étudiante Riviera 2,
StopPoint:node:6928250862,5.353485699999999,-3.9702004,Terminus Riviera 2,
StopPoint:node:6928681599,5.2563753,-3.9975737,Terminus Vridi-Iran,
StopPoint:node:6928681601,5.2947326,-4.0101948,Arrêt Cuirasse Ciment,
StopPoint:node:6928681602,5.358880399999999,-4.0279685,Gare Nord,
StopPoint:node:6928704112,5.3050571,-4.0228924,Terminus 32,
StopPoint:node:6928704113,5.3002851,-4.0170398,,
StopPoint:node:6928704114,5.2977799999999995,-4.0140854,"Etablissements Rey, Port",
StopPoint:node:6928704115,5.264595,-3.9995222999999998,Arrêt Bolloré logistique,
StopPoint:node:6928704117,5.2562337,-3.9975522,Terminus Vridi-Iran,
StopPoint:node:6929796960,5.3143818,-4.0182207,Gare Sud,
StopPoint:node:6929849943,5.3149619999999995,-4.0189046,Terminus Gare Sud,
StopPoint:node:6930487819,5.3078566,-3.9888953999999996,Arrêt,
StopPoint:node:6930917942,5.3612658,-3.8947269999999996,Station Corlay Bingerville,
StopPoint:node:6930917943,5.3618466,-3.9581934999999997,Après barrage,
StopPoint:node:6930917944,5.364055,-3.9537437,Dalia,
StopPoint:node:6930917945,5.3653603,-3.9497378,Église Apostolique de Côte d'Ivoire,
StopPoint:node:6930917946,5.3673945,-3.94563,Camp Millitaire d'Akouédo,
StopPoint:node:6930917947,5.370105,-3.9389928999999997,Carrefour Faya,
StopPoint:node:6930917948,5.3712573,-3.9347483,Résidence Genie 2000,
StopPoint:node:6930917949,5.3725084,-3.9301188,Optic 2000,
StopPoint:node:6930917950,5.3741413,-3.9237471999999998,Jules Verne,
StopPoint:node:6930917951,5.3718715,-3.9108525,Pharmacie Saint Sylvestre,
StopPoint:node:6930917952,5.3645064,-3.9083956,Cité Hévéas,
StopPoint:node:6930917953,5.3606115,-3.9031767,Université de Cocody Pole Scientifique,
StopPoint:node:6930917954,5.360275,-3.8979524,CIE,
StopPoint:node:6930917955,5.360916,-3.8963886999999997,,
StopPoint:node:6930917956,5.3577634,-3.8909746999999997,Lycée garçon de Bingerville,
StopPoint:node:6930917957,5.3574363,-3.8866321999999998,Carrefour marché,
StopPoint:node:6930917958,5.3583362999999995,-3.8843503,Espace Orange,
StopPoint:node:6930917959,5.3606583,-3.8841303999999996,Hôpital Mère-Enfant de Bingerville,
StopPoint:node:6930917961,5.3573588999999995,-3.8866549999999997,Carrefour marché,
StopPoint:node:6930917962,5.35772,-3.8912027,Lycée garçon de Bingerville,
StopPoint:node:6930917963,5.3601255,-3.8980113999999997,CIE,
StopPoint:node:6930917964,5.360215,-3.9020951,Université de Cocody Pole Scientifique,
StopPoint:node:6930917965,5.364481,-3.9084988999999997,Cité Hévéas,
StopPoint:node:6930917966,5.3683024,-3.9097514999999996,Arrêt Adaman,
StopPoint:node:6930917967,5.371488299999999,-3.9108391,,
StopPoint:node:6930917968,5.3740098,-3.9233838,Jules Verne,
StopPoint:node:6930917969,5.371637799999999,-3.9324215,Coris Bank,
StopPoint:node:6930917970,5.3701704,-3.9379910999999996,,
StopPoint:node:6930917971,5.3671088,-3.9456984,Camp Millitaire d'Akouédo,
StopPoint:node:6930917972,5.3641111,-3.9527809,,
StopPoint:node:6930917973,5.3617224,-3.9579964,Après barrage,
StopPoint:node:6931151021,5.2993777,-3.94723,Arrêt,
StopPoint:node:6931151022,5.2975522999999995,-3.9523797999999997,Sogefia,
StopPoint:node:6931151023,5.2958991,-3.9571427999999997,Arrêt,
StopPoint:node:6931151024,5.2952895,-3.9596351999999997,Pharmacie Saint François,
StopPoint:node:6931151025,5.2941237,-3.9646348,Grande Pharmacie Iroko,
StopPoint:node:6931151026,5.2929965999999995,-3.9695299,Arrêt,
StopPoint:node:6931151027,5.2924858,-3.9716829999999996,Pharmacie Du Boulevard Du Gabon,
StopPoint:node:6931151028,5.294069599999999,-3.9757097,Polyclinique La Madone,
StopPoint:node:6931151029,5.2965781,-3.9801775999999998,Arrêt,
StopPoint:node:6931151030,5.298031,-3.9828604,Arrêt,
StopPoint:node:6931151031,5.3590066,-4.027668,Gare Nord,
StopPoint:node:6931273195,5.2873212,-3.9540428,Koumassi Sicogi - Dépôt SOTRA,
StopPoint:node:6931273196,5.2849908999999995,-3.964264,,
StopPoint:node:6931273197,5.2875055,-3.9651793,,
StopPoint:node:6931273198,5.2873493,-3.9684516,,
StopPoint:node:6931273199,5.2883388,-3.9694119,,
StopPoint:node:6931273200,5.293018,-3.9762313999999996,Sicomex,
StopPoint:node:6931273201,5.3088109,-4.0075687,,
StopPoint:node:6931273203,5.3148159,-4.0184375,Gare Sud,
StopPoint:node:6931792543,5.3074119,-4.0117712999999995,Pharmacie du Rond-point,
StopPoint:node:6931792544,5.309055799999999,-4.0071049,,
StopPoint:node:6931792545,5.2889971,-3.9672807999999997,Centre comercial Koumassi,
StopPoint:node:6931792546,5.2839293,-3.9622262,Arrêt,
StopPoint:node:6931792547,5.2847439,-3.9586400999999998,Pharmacie Bethanie,
StopPoint:node:6931792548,5.2857761,-3.9543310999999997,Arrêt,
StopPoint:node:6931792550,5.288452299999999,-3.9538697999999997,Koumassi Sicogi - Dépôt SOTRA,
StopPoint:node:6931985671,5.2870688,-3.9705329999999996,Grand Carrefour de Koumassi,
StopPoint:node:6931985672,5.2985627,-4.0012989999999995,Arrêt,
StopPoint:node:6932152400,5.3266769,-4.060057,Arrêt,
StopPoint:node:6932152402,5.3250076,-4.0598402,Ghandi,
StopPoint:node:6932152404,5.325340799999999,-4.0599193,Ghandi,
StopPoint:node:6932152405,5.3600658,-4.0669167,Arrêt,
StopPoint:node:6932152407,5.314852999999999,-4.0182858,Gare Sud,
StopPoint:node:6932239010,5.3286223999999995,-3.9502595,CIAD,
StopPoint:node:6932239011,5.3291271,-3.951901,,
StopPoint:node:6932239012,5.338314,-3.9522215999999997,,
StopPoint:node:6932239013,5.344365499999999,-3.9526011,Carrefour Mel Theodore,
StopPoint:node:6932239014,5.348653,-3.9535042999999996,,
StopPoint:node:6932239015,5.3509724,-3.9545014999999997,Collège l'Ardoise,
StopPoint:node:6932239016,5.3550168,-3.9606719,,
StopPoint:node:6932239017,5.3569208999999995,-3.9637336,,
StopPoint:node:6932239019,5.3149333,-4.0185761,Gare Sud,
StopPoint:node:6932253478,5.4127978,-3.9808641999999996,Arrêt,
StopPoint:node:6932253479,5.4102497,-3.984559,Arrêt,
StopPoint:node:6932253480,5.386609399999999,-3.9930569,Arrêt,
StopPoint:node:6932253481,5.407684199999999,-3.9885655,Arrêt,
StopPoint:node:6932253483,5.412851799999999,-3.9809278999999997,Angré Château,
StopPoint:node:6932323632,5.3569409,-3.9635029,Arrêt,
StopPoint:node:6932323633,5.3517214,-3.9543646999999997,Collège Ardoise,
StopPoint:node:6932323634,5.3485048,-3.9531872,Pharmacie Riviera III,
StopPoint:node:6932323635,5.3446846,-3.9524709999999996,,
StopPoint:node:6932323636,5.3284521,-3.9448656,Lycée Francais,
StopPoint:node:6933043352,5.3228845,-4.0617429,Terminus Yopougon Camp Militaire,
StopPoint:node:6933043354,5.3245990999999995,-4.0599163,Ghandi,
StopPoint:node:6933043355,5.3278586,-4.0607049,,
StopPoint:node:6933043356,5.330068499999999,-4.0581514,,
StopPoint:node:6933043357,5.3314439,-4.0559573,,
StopPoint:node:6933043359,5.314559099999999,-4.018425,Gare Sud,
StopPoint:node:6933080250,5.3283246,-3.9428297999999997,Arrêt,
StopPoint:node:6933080251,5.3282992,-3.9447636999999998,Sablière,
StopPoint:node:6933080252,5.3283286,-3.9460498,Arrêt,
StopPoint:node:6933080253,5.328364,-3.9479501999999997,Pharmacie M'pouto,
StopPoint:node:6933080254,5.3380122,-3.9527767999999996,Beverly,
StopPoint:node:6933080255,5.3311481,-3.9578046,Carrefour Sol Béni,
StopPoint:node:6933080256,5.329492999999999,-3.9804209999999998,Arrêt,
StopPoint:node:6933080257,5.3353722999999995,-3.9996752,SIB,
StopPoint:node:6933080258,5.3284154,-3.9401878,Mosquée Cité Eden,
StopPoint:node:6933080260,5.3283646,-3.9401854999999997,Mosquée Cité Eden,
StopPoint:node:6933080262,5.3461454,-4.0026095999999995,Arrêt,
StopPoint:node:6933080263,5.3391939,-3.9789296999999997,Mosquée Golf,
StopPoint:node:6933080264,5.3325809,-3.9812806,Arrêt,
StopPoint:node:6933080265,5.3297881,-3.9790913,Arrêt,
StopPoint:node:6933080266,5.3380133999999995,-3.9529652,Beverly,
StopPoint:node:6933128807,5.3312516,-4.0560298,,
StopPoint:node:6933128808,5.329981699999999,-4.0580978,,
StopPoint:node:6933128810,5.3222556,-4.0623571,Terminus Yopougon Camp Militaire,
StopPoint:node:6933231056,5.3017767,-4.0094478,Station Total,
StopPoint:node:6933231057,5.3029158,-4.0061849,Pharmacie de l'Avenue 27,
StopPoint:node:6933291484,5.3589712,-4.0272913,Gare Nord,
StopPoint:node:6933302185,5.3591995,-4.0277538999999996,Gare Nord,
StopPoint:node:6934648710,5.4266331999999995,-4.0210558,Arrêt,
StopPoint:node:6934648711,5.4438112,-4.0538115999999995,Arrêt,
StopPoint:node:6934648712,5.4435975999999995,-4.0603428,Arrêt,
StopPoint:node:6934648713,5.443497499999999,-4.0647738,Arrêt,
StopPoint:node:6934648714,5.4433733,-4.0679454999999995,Arrêt,
StopPoint:node:6934648715,5.442806,-4.0693985,Arrêt,
StopPoint:node:6934648716,5.4392746999999995,-4.0686146999999995,Arrêt,
StopPoint:node:6934648717,5.4321434,-4.068663,Arrêt,
StopPoint:node:6934648718,5.428223,-4.0699659,Arrêt,
StopPoint:node:6934648719,5.413004,-4.0783779,Arrêt,
StopPoint:node:6934648720,5.4036687,-4.0834808,Arrêt,
StopPoint:node:6934648721,5.4009224,-4.084276099999999,Arrêt,
StopPoint:node:6934648722,5.393576299999999,-4.0810159,Arrêt,
StopPoint:node:6934648723,5.3892384,-4.078453,Arrêt,
StopPoint:node:6934648724,5.3836466,-4.0757427,Arrêt,
StopPoint:node:6934648725,5.3747704,-4.0773950999999995,Arrêt,
StopPoint:node:6934648726,5.3762544,-4.0820444,Arrêt,
StopPoint:node:6934648728,5.3838941,-4.0759718,Arrêt,
StopPoint:node:6934648729,5.389031999999999,-4.0784458,Arrêt,
StopPoint:node:6934648730,5.3928929,-4.0806236,Arrêt,
StopPoint:node:6934648731,5.4014804,-4.0842976,Arrêt,
StopPoint:node:6934648732,5.4130749,-4.0784144,Arrêt,
StopPoint:node:6934648733,5.4279813,-4.070195,Arrêt,
StopPoint:node:6934648734,5.4326393,-4.0686617,Arrêt,
StopPoint:node:6934648735,5.442790899999999,-4.069497999999999,Arrêt,
StopPoint:node:6934648736,5.4435987,-4.0650186,Arrêt,
StopPoint:node:6934648737,5.4437261,-4.0602688,Arrêt,
StopPoint:node:6934648738,5.4438908999999995,-4.0536714,Arrêt,
StopPoint:node:6934648739,5.4432611,-4.0481434,Arrêt,
StopPoint:node:6934648740,5.4392603,-4.0438735,Arrêt,
StopPoint:node:6934657650,5.3480962,-4.0169741,220 logements,
StopPoint:node:6934657651,5.2690687,-3.9619017,Carrefour Akwaba,
StopPoint:node:6934657652,5.2629136999999995,-3.9633662,Hôpital de Port-Bouët,
StopPoint:node:6934657653,5.2574343,-3.9637683999999997,Nouveau marché Port-Bouët,
StopPoint:node:6934657654,5.2567198,-3.961553,Océan Espadon,
StopPoint:node:6934657655,5.254243799999999,-3.9621215999999997,Église Méthodiste Unie Port-Bouët,
StopPoint:node:6934657656,5.2530566,-3.9607128,Wharf Port-Bouët,
StopPoint:node:6934657657,5.2510654,-3.9560196,Terminus Port-Bouët Phare,
StopPoint:node:6934749721,5.400118,-4.0201934,Arrêt,
StopPoint:node:6934798183,5.3970398,-4.0027148,Centre Commercial du Dokui,
StopPoint:node:6934798184,5.3997114,-4.001413299999999,Sainte Monique,
StopPoint:node:6934815685,5.3994162999999995,-3.9960703,Superette Akwaba,
StopPoint:node:6934815686,5.3979664,-3.9916373,22ème,
StopPoint:node:6934815687,5.3992227,-3.9959844999999996,Superette Akwaba,
StopPoint:node:6934815688,5.3994417,-3.9972692999999997,Pharmacie Sainte Monique,
StopPoint:node:6934815689,5.3997942,-4.0008152,Station Petro Ivoire,
StopPoint:node:6934815690,5.3994656999999995,-4.0013301,Sainte Monique,
StopPoint:node:6934815692,5.3970104,-4.0026122,Centre Commercial du Dokui,
StopPoint:node:6934872150,5.3221354,-4.0506908,Yopougon Kowëit,
StopPoint:node:6934872151,5.3218817,-4.0802555,Sideci Matignon,
StopPoint:node:6934922723,5.4604925,-4.0109827,Abobo Akeikoi Village,
StopPoint:node:6934922724,5.4554314999999995,-4.0111108,Destin,
StopPoint:node:6934922725,5.4531085,-4.0126598,André Bar,
StopPoint:node:6934922726,5.4493063,-4.013641499999999,Arrêt,
StopPoint:node:6934922727,5.444699099999999,-4.0143429,Arrêt,
StopPoint:node:6934922728,5.4400103,-4.0141618,Arrêt,
StopPoint:node:6934922731,5.4327535,-4.0137548,Arrêt,
StopPoint:node:6934922732,5.4336247,-4.0124023,Arrêt,
StopPoint:node:6934922733,5.4393221,-4.0143033,Arrêt,
StopPoint:node:6934922734,5.4445716,-4.0145279,Arrêt,
StopPoint:node:6934922735,5.4493357,-4.0137662,Arrêt,
StopPoint:node:6934922736,5.4531566,-4.0127616999999995,André Bar,
StopPoint:node:6934922737,5.4554447999999995,-4.0112489,Destin,
StopPoint:node:6934922738,5.4604067999999994,-4.0110518,Abobo Akeikoi Village,
StopPoint:node:6934970640,5.3102833,-4.0352396,Gare Abobodoumé,
StopPoint:node:6935113685,5.4306528,-4.0240914,Arrêt,
StopPoint:node:6935113687,5.3314011,-4.0236072,Terminus tours Administratives,
StopPoint:node:6935117220,5.3591731,-4.0273828,Gare Nord,
StopPoint:node:6935117222,5.3610508,-3.9897308999999996,Woodin,
StopPoint:node:6935117223,5.3653222,-3.9897536999999996,,
StopPoint:node:6935117224,5.3685842,-3.9898488999999997,,
StopPoint:node:6935117225,5.372732,-3.9904759,Leader price,
StopPoint:node:6935117227,5.377053399999999,-3.9926611999999997,Cocody Gobelet - Terminus 35,
StopPoint:node:6935251104,5.3771843,-3.9926424999999997,Cocody Gobelet - Terminus 35,
StopPoint:node:6935251105,5.3742722,-3.9904471,Sococé Vallon,
StopPoint:node:6935251106,5.3686001999999995,-3.9897872999999997,Nsia Banque,
StopPoint:node:6935251107,5.3649629999999995,-3.9897014,,
StopPoint:node:6935251108,5.3606736,-3.9896753,Woodin,
StopPoint:node:6935251109,5.357619199999999,-3.9907542,Versus Bank,
StopPoint:node:6935251110,5.3522302,-3.9912866,École de Police,
StopPoint:node:6935251111,5.3387478999999995,-3.99993,Mermoz,
StopPoint:node:6935251112,5.3591581,-4.0278564999999995,Gare Nord,
StopPoint:node:6935274791,5.2627714,-3.9831166,Groupe Scolaire Kouamé Konan,
StopPoint:node:6935274792,5.2569108,-3.9774759,Groupe Scolaire Petit Bassam,
StopPoint:node:6935274793,5.2576266,-3.9696439,Arrêt,
StopPoint:node:6935274794,5.2585828,-3.965703,Marché,
StopPoint:node:6935274796,5.256815899999999,-3.9608596,Pharmacie Océan,
StopPoint:node:6935274797,5.256199,-3.9581760999999998,Lycée Moderne Port Bouët,
StopPoint:node:6935274798,5.2658583,-3.9610526999999998,Carrefour Akwaba,
StopPoint:node:6935274799,5.2758153,-3.9661885999999997,Digue de Koumassi,
StopPoint:node:6935274800,5.2813533,-3.9692871,CIE Bia Sud,
StopPoint:node:6935274801,5.2900094,-3.962945,Arrêt,
StopPoint:node:6935274802,5.2907532,-3.9596587,Arrêt,
StopPoint:node:6935274803,5.294112999999999,-3.9555146999999997,Gare Koumassi,
StopPoint:node:6935274804,5.298266,-3.9498116,Pharmacie Regina,
StopPoint:node:6935274805,5.2982252999999995,-3.9495503999999997,Pharmacie Regina,
StopPoint:node:6935274806,5.2909815,-3.9582726,Ajavon,
StopPoint:node:6935274807,5.2902818,-3.9612938,Foyer des Jeunes,
StopPoint:node:6935274808,5.2889304,-3.9668677999999997,Centre Commercial Koumassi,
StopPoint:node:6935274809,5.2768282,-3.9667035,Carrefour Ancien Koumassi,
StopPoint:node:6935274810,5.2576732999999995,-3.9577991999999997,43ème Bima,
StopPoint:node:6935274811,5.256056699999999,-3.9579253,Lycée moderne Port-bouët ,
StopPoint:node:6935274812,5.2574824,-3.9642432,Nouveau Marché Port-Bouët,
StopPoint:node:6935274813,5.2584759,-3.965754,District de Port-Bouet,
StopPoint:node:6935274814,5.2576319,-3.9693877,Arrêt,
StopPoint:node:6935274815,5.2572754,-3.9790308999999997,Arrêt,
StopPoint:node:6935274816,5.2569161,-3.9893487,Stade de la SIR,
StopPoint:node:6935401276,5.3852315,-4.006142,Arrêt,
StopPoint:node:6935401277,5.3852595,-4.0060079,Arrêt,
StopPoint:node:6935401278,5.3984537,-4.0064532,Arrêt,
StopPoint:node:6935401279,5.402294899999999,-4.0064304,Arrêt,
StopPoint:node:6935401280,5.4087036,-4.006340499999999,Arrêt,
StopPoint:node:6935401281,5.4109492999999995,-4.0062828,Arrêt,
StopPoint:node:6935401282,5.4143906,-4.0062492999999995,Arrêt,
StopPoint:node:6935401283,5.420497999999999,-4.0170009,Arrêt,
StopPoint:node:6935401284,5.4189547,-4.0141176,Arrêt,
StopPoint:node:6935407385,5.4179854,-4.0123071,Arrêt,
StopPoint:node:6935407386,5.4164927,-4.0094626,Arrêt,
StopPoint:node:6935488165,5.2983706,-4.0041834,"Parc des Sports, Boulevard Valéry Giscard d'Estaing",
StopPoint:node:6935488166,5.2470403,-3.9445075,Carrefour Aéroport,
StopPoint:node:6935488167,5.2446806,-3.9295541999999997,,
StopPoint:node:6935488168,5.2440381,-3.925598,,
StopPoint:node:6935488169,5.2434544999999995,-3.9220439999999996,,
StopPoint:node:6935488170,5.2426599,-3.9170243,,
StopPoint:node:6935488171,5.2417850999999995,-3.9115848,,
StopPoint:node:6935488172,5.2407648,-3.9051327,Mosquée,
StopPoint:node:6935494486,5.260825,-3.9593026,,
StopPoint:node:6935494487,5.2976825,-3.984569,Avenue de la Côte d'Ivoire / Boulevard V.G.E.,
StopPoint:node:6935494488,5.2402774,-3.9005902999999997,Terminus Gonzagueville,
StopPoint:node:6935494499,5.2405691,-3.9050053,Mosquée,
StopPoint:node:6935494500,5.2414058,-3.9104489,,
StopPoint:node:6935494501,5.2422365,-3.9156765,,
StopPoint:node:6935494502,5.243186,-3.9216458,,
StopPoint:node:6935494503,5.243725599999999,-3.9251152,,
StopPoint:node:6935494504,5.2444774999999995,-3.9298091,,
StopPoint:node:6935494505,5.2456701,-3.9372024999999997,,
StopPoint:node:6935494506,5.2467051,-3.94366,,
StopPoint:node:6935494507,5.2492331,-3.9541125,,
StopPoint:node:6935494508,5.2573475,-3.9579212999999998,43ème Bima,
StopPoint:node:6935494509,5.299118,-4.006518799999999,Palais des Sports,
StopPoint:node:6935494511,5.3101948,-4.0149691999999995,Avenue Christiani,
StopPoint:node:6937770645,5.3002327,-4.0082087,Arrêt,
StopPoint:node:6937770646,5.2618319,-3.9594313999999997,Arrêt,
StopPoint:node:6937770647,5.2467277999999995,-3.9424717,Arrêt,
StopPoint:node:6937770648,5.2400864,-3.9007734999999997,Terminus Gonzagueville,
StopPoint:node:6937770649,5.2395482,-3.8973275,Arrêt,
StopPoint:node:6937770650,5.238997299999999,-3.893671,Arrêt,
StopPoint:node:6937770652,5.2375957,-3.8845292999999996,Pharmacie Bénediction,
StopPoint:node:6937770653,5.2369286,-3.8802068999999997,Anani,
StopPoint:node:6937770654,5.2368898,-3.8798529,Anani,
StopPoint:node:6937770655,5.2369172,-3.8749894,Arrêt,
StopPoint:node:6937770656,5.2372444,-3.8833564999999997,Arrêt,
StopPoint:node:6937770657,5.2380743999999995,-3.888965,Collège privé les Cartésiens d'Abidjan,
StopPoint:node:6937770658,5.2386868,-3.8928086,Arrêt,
StopPoint:node:6937770659,5.2391862,-3.8962466,Arrêt,
StopPoint:node:6937770660,5.2399789,-3.9013763,Terminus Gonzagueville,
StopPoint:node:6937789671,5.2562109999999995,-3.9649889,Arrêt,
StopPoint:node:6938095648,5.4354794,-4.01522,Gare Abobo Sogephia,
StopPoint:node:6938222040,5.4251869,-4.0222809,Arrêt,
StopPoint:node:6938222041,5.419196299999999,-4.0239142999999995,Arrêt,
StopPoint:node:6938222042,5.4148659,-4.0240282999999994,Arrêt,
StopPoint:node:6938222043,5.4147991,-4.0292727,Arrêt,
StopPoint:node:6938324861,5.5005578,-4.0807772,Ebimpé Village,
StopPoint:node:6938324862,5.503194199999999,-4.0807946,Arrêt,
StopPoint:node:6938324863,5.5033771,-4.0801696,Arrêt,
StopPoint:node:6938324864,5.503118199999999,-4.076975099999999,Arrêt,
StopPoint:node:6938324865,5.5007033,-4.077020699999999,Arrêt,
StopPoint:node:6938324866,5.5002134,-4.0762322,Arrêt,
StopPoint:node:6938324867,5.5002334,-4.07344,Arrêt,
StopPoint:node:6938324868,5.5000184999999995,-4.0699397,Arrêt,
StopPoint:node:6938324869,5.4982283,-4.066591,Arrêt,
StopPoint:node:6938324870,5.4912933,-4.0678543,Arrêt,
StopPoint:node:6938324871,5.4869787,-4.0690076,Arrêt,
StopPoint:node:6938324872,5.4842033,-4.0697157,Arrêt,
StopPoint:node:6938324873,5.4791891999999995,-4.0709843999999995,Arrêt,
StopPoint:node:6938324874,5.4769371,-4.0715718,Arrêt,
StopPoint:node:6938324875,5.4724328,-4.072693,Arrêt,
StopPoint:node:6938324876,5.4679499,-4.073747099999999,Arrêt,
StopPoint:node:6938324877,5.4644949,-4.0739322,Arrêt,
StopPoint:node:6938324878,5.460687399999999,-4.0733501,Arrêt,
StopPoint:node:6938324879,5.4565342,-4.0724757,Arrêt,
StopPoint:node:6938324880,5.4517454,-4.0713693,Arrêt,
StopPoint:node:6938324881,5.4485133,-4.0706693,Arrêt,
StopPoint:node:6938324882,5.4441757,-4.0696566999999995,Arrêt,
StopPoint:node:6938324883,5.4435135,-4.068196299999999,Arrêt,
StopPoint:node:6938324884,5.443861999999999,-4.056062,Arrêt,
StopPoint:node:6938343085,5.444073599999999,-4.0494295,Arrêt,
StopPoint:node:6938407500,5.260801,-3.9640112,Hotel Communal Port-Bouët,
StopPoint:node:6938407501,5.2629757,-3.9635653,Hôpital Géneral de Port-Bouët,
StopPoint:node:6938407503,5.2938719999999995,-3.9564407,Arrêt,
StopPoint:node:6938407504,5.2382227,-3.8886203999999998,Collège privé les Cartésiens d'Abidjan,
StopPoint:node:6938756997,5.3640511,-3.9975951999999997,Farandole,
StopPoint:node:6938792077,5.4036801,-3.9845086999999997,Arrêt,
StopPoint:node:6938792078,5.382926299999999,-3.993252,Arrêt,
StopPoint:node:6938792079,5.3147389,-4.0186301,Gare Sud,
StopPoint:node:6939014886,5.3010836999999995,-3.9887344999999996,Arrêt,
StopPoint:node:6939014887,5.302380299999999,-3.9663789,Pharmacie Sainte Aghate,
StopPoint:node:6939014888,5.302965899999999,-3.9640502,Terminus Remblais 03,
StopPoint:node:6939014890,5.302855,-3.9638825,Terminus Remblais 03,
StopPoint:node:6939014891,5.3018088,-3.9684999,Arrêt,
StopPoint:node:6939014892,5.2984764,-3.9714878999999996,Arrêt,
StopPoint:node:6939014894,5.3022895,-3.9848063999999996,Arrêt,
StopPoint:node:6939014895,5.359076,-4.0274686,Gare Nord,
StopPoint:node:6939076692,5.2875727999999995,-4.0059154,Terminus dépôt SOTRA,
StopPoint:node:6943517785,5.8297498,-5.3576052,Gare S.T.B.A.,
StopPoint:node:6944816371,5.3314425,-4.0768933,Sideci Pharmacie Lem,
StopPoint:node:6944816372,5.330538499999999,-4.0798317,Sideci Lem,
StopPoint:node:6944816373,5.3270574,-4.0813806999999995,,
StopPoint:node:6944816374,5.3246445,-4.0806283,Akadjoba,
StopPoint:node:6944887181,5.3310827,-4.023729299999999,Terminus tours Administratives,
StopPoint:node:6944887182,5.4253525,-4.0220541999999995,Arrêt,
StopPoint:node:6944887183,5.4193150999999995,-4.0240122,Arrêt,
StopPoint:node:6944887184,5.4150827999999995,-4.0241008,Arrêt,
StopPoint:node:6944920985,5.4148679,-4.0292533,Arrêt,
StopPoint:node:6944920986,5.4148038,-4.0334696999999995,Terminus bus 51/52,
StopPoint:node:6944934858,5.3274379,-4.0817052,,
StopPoint:node:6944934859,5.330153999999999,-4.080812,Sideci Lem - Carrefour Sgbci,
StopPoint:node:6944934860,5.3314305,-4.077306399999999,Sideci Pharmacie Lem,
StopPoint:node:6945017053,5.3521541,-3.9914099999999997,École de Police,
StopPoint:node:6945017054,5.356994299999999,-3.9914516,,
StopPoint:node:6945458783,5.2865573999999995,-4.0082677,Siège SOTRA,
