stop_point_id,lat,lon,name,first_stop_area_id
StopPoint:node:33320929,5.2423326999999995,-3.9158817,,
StopPoint:node:768587345,5.3164438999999994,-4.089334099999999,Terminus 27,
StopPoint:node:768587373,5.3198516,-4.0801099999999995,Terminus 42 Yopougon,
StopPoint:node:768587483,5.3295901,-4.0737236999999995,Terminus Bus 40,
StopPoint:node:773855851,5.4038981999999995,-3.9857522,Terminus 81/82,
StopPoint:node:775786985,5.3309391999999995,-3.9578221,Ex Terminus Sotra;Carrefour Sol Beni,
StopPoint:node:1955914051,5.3100743,-4.0150469,Avenue Christiani,
StopPoint:node:2003993801,7.669522799999999,-5.0442792999999995,1er Arrêt des Gbaka,
StopPoint:node:2381298633,5.3607663,-4.0170718999999995,Sotra,
StopPoint:node:2382012039,5.3672073,-4.0234347,Terminus 14,
StopPoint:node:2443736823,5.306861,-3.9640635,Gare de Wôrô-Wôrô d'Anoumabo,
StopPoint:node:2444131222,5.3438972,-4.018311,,
StopPoint:node:2453443617,5.3115337,-3.9740528999999998,Arret de bus,
StopPoint:node:2460519991,5.3423281,-4.0732216999999995,Arrêt de bus,
StopPoint:node:2476299733,5.3057476,-3.9763355,,
StopPoint:node:2476303039,5.3068867,-3.9773022,Arrêt de bus (03-31),
StopPoint:node:2476303739,5.3107413999999995,-3.9772089,Arrêt de bus (03-31),
StopPoint:node:2476306856,5.311706,-3.9732735,Arrêt de bus (03-31),
StopPoint:node:2476308724,5.3101303,-3.9640413,Arrêt de bus (03-31),
StopPoint:node:2476311863,5.3079236,-3.9640009999999997,Arrêt de bus (03-31),
StopPoint:node:2476314228,5.3078622,-3.9640017999999997,Arrêt de bus (03-31),
StopPoint:node:2477686907,5.3064881999999995,-3.9857649,,
StopPoint:node:2493226931,5.3412662,-4.0238644,Arrêt de bus,
StopPoint:node:2493730483,5.2942027,-3.9551669,Gare Koumassi,
StopPoint:node:2493732230,5.2948938,-3.9559024999999997,woro woro adjame,
StopPoint:node:2760843854,5.312132399999999,-3.9452249999999998,Terminus 05,
StopPoint:node:2902894063,5.3538554,-4.016554,Gare de wôrô-wôrô de Williamsville,
StopPoint:node:2948146673,5.3396297,-4.0833441,Terminus bus 47,
StopPoint:node:3025272708,5.2955802,-3.9874929,,
StopPoint:node:3067761599,5.339605,-4.0919329,,
StopPoint:node:3067766418,5.340233899999999,-4.1003523,,
StopPoint:node:3067766555,5.3400523,-4.0973067,,
StopPoint:node:3075945505,5.3423254,-4.0738294999999995,Arrêt de bus,
StopPoint:node:3123713351,5.3285458,-3.932282,Terminus Sotra M’Badon,
StopPoint:node:3137208051,5.3427541,-4.0668084,,
StopPoint:node:3137217828,5.3436694,-4.0709463999999995,,
StopPoint:node:3137243386,5.3446548,-4.0679592,,
StopPoint:node:3137244964,5.344552,-4.0677822,,
StopPoint:node:3142681418,5.3807202,-3.9644698,,
StopPoint:node:3172419225,5.3250807,-4.001591299999999,,
StopPoint:node:3178527188,5.4046921,-3.9920069,Gare des taxis d'Abobo,
StopPoint:node:3218806159,5.3116268,-3.9487007,Terminus 32,
StopPoint:node:3218939370,5.3099478,-3.9472003,"arrèt de bus( 32,05,24,92,205)",
StopPoint:node:3218939371,5.3099637,-3.9473634,"arrèt de bus( 32,05,24,92,205)",
StopPoint:node:3315069090,5.3577527,-4.0012264,,
StopPoint:node:3323574144,5.3479204,-4.0097477,,
StopPoint:node:3323574470,5.347802499999999,-4.0097442,,
StopPoint:node:3326195828,5.336882699999999,-4.003773,Arrêt de bus 93;Wibus 702 St Jean,
StopPoint:node:3345569759,5.4041552,-3.98833,,
StopPoint:node:3396926870,5.2892377,-3.9691935,Wôrô-wôrô,
StopPoint:node:3396926874,5.2899064,-3.9694482,,
StopPoint:node:3461770000,5.2498688,-3.9546248,,
StopPoint:node:3489747206,5.268506899999999,-4.0062837,,
StopPoint:node:3605638544,5.3458049999999995,-3.9901614999999997,Arrêt de bus - Université,
StopPoint:node:3666057101,5.3469232,-4.0883549,Port-Bouët II,
StopPoint:node:3781465058,7.6847015,-5.0450308999999995,,
StopPoint:node:3806582754,7.6820602,-5.0301887,Arrêt de bus,
StopPoint:node:3950172145,5.3493507,-4.0734547,,
StopPoint:node:4003441193,5.3718088999999996,-3.9983915999999997,"Sococe II Plateaux, Boulevard des Martyrs;Sococe Arrêt Poulet Thomas",
StopPoint:node:4013241179,5.3516816,-4.0021119,,
StopPoint:node:4019691346,5.3408323,-4.0649916,,
StopPoint:node:4021778943,7.6890129,-5.03025,,
StopPoint:node:4029208102,5.3617213999999995,-3.9973642999999996,"ENA Cocody, Boulevard Latrille",
StopPoint:node:4038594408,5.4744709,-3.8045586,Station Autobus,
StopPoint:node:4063655568,5.3349310999999995,-3.9956704999999997,,
StopPoint:node:4063656138,5.3355426,-4.0007561,Marché Cocody,
StopPoint:node:4063656139,5.33566,-4.0007689,Marché Cocody,
StopPoint:node:4063656146,5.3345154,-3.9903182,,
StopPoint:node:4063657304,5.3525835,-4.0018898,,
StopPoint:node:4063657305,5.3580071,-4.0012375,,
StopPoint:node:4064423783,5.3437886,-4.0008063,ISTC,
StopPoint:node:4077783239,5.3369803,-4.0216652999999996,,
StopPoint:node:4107240493,5.276244,-3.9668949,Gare de Wôrô Wôrô,
StopPoint:node:4107240891,5.2742872,-3.9786938,Arrêt de Bus Sotra,
StopPoint:node:4165904524,7.6879789999999995,-5.0280607999999996,,
StopPoint:node:4191723232,5.2405957,-3.9050024,,
StopPoint:node:4191723587,5.2395797,-3.8985515,,
StopPoint:node:4191725493,5.2432962,-3.9221302999999996,,
StopPoint:node:4191725498,5.244583899999999,-3.9301833,,
StopPoint:node:4191725500,5.2457139,-3.9371923,,
StopPoint:node:4191725506,5.2608212,-3.9592706,,
StopPoint:node:4191725508,5.2659297,-3.9610339,,
StopPoint:node:4249632774,5.3585107,-4.0372919,Termunis du bus 02 Cité fairmont,
StopPoint:node:4336259489,5.2568787,-3.9774906999999997,,
StopPoint:node:4337038016,5.2651661,-4.0114259,,
StopPoint:node:4411562346,5.3296506,-4.0613649999999994,Terminus 85,
StopPoint:node:4430910012,7.6796280999999995,-5.0279685999999995,,
StopPoint:node:4633269025,5.4818964,-4.0515794,,
StopPoint:node:4659944490,5.3133456,-3.9439194,Koumassi terminus 05,
StopPoint:node:4782251624,5.2745951,-3.9810261,Rodrigue,
StopPoint:node:4819697544,5.3159469,-4.089632,Gare Azito,
StopPoint:node:4858065722,5.348518299999999,-4.0039133,Gare Plateau de la vie,
StopPoint:node:4932020421,5.3672433,-3.9984933,Arrêt de bus Mobile,
StopPoint:node:4977476396,5.369294,-3.9984043999999996,Gare wôrô-wôrô Deux Plateaux,
StopPoint:node:4999458824,5.294836999999999,-4.0040439,Terminus Chu de Treichville,
StopPoint:node:5030710121,5.7632777,-3.9789021,Carrefour Pecto,
StopPoint:node:5057165424,5.3018152999999995,-4.0109553,Ex-pharmacie Mockey,
StopPoint:node:5057297311,5.3368778,-4.0039869,Arrêt de bus 94;Carrefour St Jean,
StopPoint:node:5061017421,5.7585332,-3.9823245,Carrefour Affoue,
StopPoint:node:5068855021,5.415756399999999,-3.9934657999999996,Terminus 704 abobo Belleville,
StopPoint:node:5093060635,5.3306312,-4.1059155,Cité Bracodi Rte Cité verte,
StopPoint:node:5143730222,5.3283086,-3.9410271,terminus bus 41;28;wibus 702,
StopPoint:node:5143751833,5.328447499999999,-3.9410391,"Terminus bus 41, 28, Wibus",
StopPoint:node:5147952122,5.4218733,-4.0165052,"Gare de gbaka Dokui, Zoo, Paillet",
StopPoint:node:5151223622,5.4215881,-4.016037799999999,Gare Angré Pétro Ivoire,
StopPoint:node:5151231923,5.351134399999999,-3.9911496,Arrêt wibus,
StopPoint:node:5156837725,5.3537326,-4.0280581,Gare de wôrô-wôrô Treichville Marcory Koumassi,
StopPoint:node:5156856821,5.3090367999999994,-4.0153032,Gare de wôrô-wôrô,
StopPoint:node:5281604034,5.3437793,-4.0705754,,
StopPoint:node:5299283324,5.342251699999999,-4.0664755999999995,,
StopPoint:node:5299389451,5.3407348,-4.0649226,,
StopPoint:node:5414376221,5.3555491,-4.0206265,Stif,
StopPoint:node:5425049447,5.3222796,-4.0530042,Gare de Bingerville,
StopPoint:node:5481186122,7.4541637,-4.3380804,KKM TRANSPORT,
StopPoint:node:5535571842,5.132472,-3.2925646,Traversée pirogue,
StopPoint:node:5739489700,5.341336999999999,-4.0623102,Complexe sportif Yopougon,
StopPoint:node:5892858715,5.788166599999999,-6.600311,GARE D'OKROUYO,
StopPoint:node:5892933976,5.7886863,-6.6001027,Gare TSF Odienne,
StopPoint:node:5892936985,5.7884965,-6.6001362,Gare d’Odienné,
StopPoint:node:5892936988,5.7884081,-6.600043299999999,Gare de Dibievi,
StopPoint:node:5922542416,5.3414946,-4.0590942,,
StopPoint:node:5927302128,5.349328,-4.0731718,,
StopPoint:node:5934409413,5.3419897,-4.1003513,Arret de bus,
StopPoint:node:5936892363,5.3670807,-4.1019706,Terminus du bus 34,
StopPoint:node:5953580657,5.402885899999999,-3.9785378999999996,Bicici Djibi,
StopPoint:node:5953580661,5.3802448,-3.967352,Pharmacie Val de Grace,
StopPoint:node:5953580666,5.3695213,-3.9586785,Pharmacie du bonheur,
StopPoint:node:5953580667,5.3620353,-3.9592902999999997,Carrefour Palmeraie,
StopPoint:node:5953580668,5.3582581,-3.9643623,Station Shell Riviera 3,
StopPoint:node:5954541435,5.328553599999999,-3.949563,CIAD,
StopPoint:node:5954541438,5.3358519,-3.9767957999999997,Ambassade des USA,
StopPoint:node:5954541439,5.3347766,-3.9902178999999998,Boulevard de France,
StopPoint:node:5954541440,5.3488090999999995,-4.002629199999999,Carrefour de la Vie,
StopPoint:node:5957127888,5.4380915,-4.0383077,,
StopPoint:node:5957239660,5.412186999999999,-3.9820396999999996,Chateau d'eau d'Angré,
StopPoint:node:5957239661,5.4046461,-3.9909339999999998,Petro Ivoire Angré,
StopPoint:node:5957239662,5.3985068,-3.9915376,Carrefour 22è,
StopPoint:node:5957239663,5.3855702,-3.9931262,Carrefour Opéra,
StopPoint:node:5957239664,5.3778779,-3.9973645999999996,Carrefour Duncan,
StopPoint:node:5957239665,5.3615936,-3.9975967999999997,ENA,
StopPoint:node:5957239666,5.3283657,-4.0050365999999995,Hotel Ivoire,
StopPoint:node:5957239667,5.3222225,-4.0026151,Blockhauss,
StopPoint:node:5958266385,5.3975314,-3.9860303,Pharmacy Les Laureades,
StopPoint:node:5958266386,5.3806538999999995,-3.9881293999999996,Petro Ivoire 7è Tranche,
StopPoint:node:5958266387,5.373758,-3.9845519,Commisariat 30è Art.,
StopPoint:node:5958266388,5.370110899999999,-3.9813020999999997,Terminus 202 Attoban,
StopPoint:node:5958266389,5.3673274,-3.9797108999999997,Parmacie St Bernard,
StopPoint:node:5958266390,5.3573659,-3.9782153,Pharmacie St Ange,
StopPoint:node:5958266391,5.3560571999999995,-3.9778765,Collège André Malraux,
StopPoint:node:5958266392,5.3541948,-3.977334,Riviera 2,
StopPoint:node:5961735082,5.4239193,-4.0499566,Gare Gbaka Anonkou-Sodeci,
StopPoint:node:6061198384,5.2561629,-3.9581277999999998,Lycée Moderne Port Bouët,
StopPoint:node:6098848385,5.3247785,-4.0207675,Sotra,
StopPoint:node:6136765394,5.3233875,-4.0205532999999996,Terminus Hotel de Ville,
StopPoint:node:6136850508,5.3238629,-4.0205261,Hôtel de Ville,
StopPoint:node:6136850509,5.3235465,-4.0205198,Hotel de Ville,
StopPoint:node:6136850510,5.3236666999999995,-4.0205326999999995,,
StopPoint:node:6136858285,5.3228997,-4.0205236,Terminus Hotel de Ville,
StopPoint:node:6195348341,5.3317403,-4.021322,Cathédrale Saint paul,
StopPoint:node:6281030720,5.415019699999999,-4.0339138,Terminus bus 51/52,
StopPoint:node:6474137921,5.435137699999999,-4.0144297,Terminus 15 Gare SOTRA Abobo Sogefiha,
StopPoint:node:6474137923,5.4363696,-4.0125445,BICICI,
StopPoint:node:6474137925,5.4382601,-4.0147452,Cours Sociaux,
StopPoint:node:6474137927,5.4381179,-4.019424,Avenue Kaza,
StopPoint:node:6474137929,5.4355632,-4.0202585,Camp Commando,
StopPoint:node:6474137931,5.4306474,-4.0200922,Station Shell,
StopPoint:node:6474137932,5.42648,-4.0199105,Gendarmerie Abobo,
StopPoint:node:6474137934,5.4234019,-4.0187517999999995,Terminus Gendarmerie Abobo,
StopPoint:node:6474137936,5.417211,-4.0166764,2ème Arrêt,
StopPoint:node:6474137938,5.4131456,-4.0159709999999995,Banco,
StopPoint:node:6474137940,5.4089746,-4.0160152,Anador,
StopPoint:node:6474137942,5.392647,-4.0207427,Université Nangui Abrogoua,
StopPoint:node:6474137944,5.3774907,-4.0255918,Macaci,
StopPoint:node:6474137946,5.3592115,-4.0276442999999995,Gare Nord Adjamé,
StopPoint:node:6474137948,5.3592102,-4.0274836999999994,Gare Nord SOTRA Adjamé,
StopPoint:node:6474137950,5.3533523999999995,-4.0257738,Grande Mosquée Adjamé,
StopPoint:node:6474137952,5.347785,-4.0256608,Foire de Chine,
StopPoint:node:6474137954,5.3431991,-4.0260082,Mairie d'Adjamé,
StopPoint:node:6474137956,5.3313193,-4.0238366,Gare SOTRA Cité Administrative,
StopPoint:node:6474137958,5.3278045,-4.0238800999999995,Immeuble Sogefiha,
StopPoint:node:6474137967,5.314485599999999,-4.0181311,Quai 15 Gare Sud SOTRA Plateau,
StopPoint:node:6474137979,5.3179530999999995,-4.0197274,Sureté,
StopPoint:node:6474137980,5.3224345,-4.0197445,Hotel de Ville,
StopPoint:node:6474137981,5.3339529,-4.0247405,Camp Galliéni,
StopPoint:node:6474137982,5.3386571,-4.026107,INSP,
StopPoint:node:6474137983,5.343693099999999,-4.0260454,Mairie d'Adjamé,
StopPoint:node:6474137984,5.3459807999999995,-4.0258338,Marché Forum,
StopPoint:node:6474138985,5.3503851,-4.0255646,Pharmacie du Banco,
StopPoint:node:6474138986,5.3534539,-4.0258918,Grande Mosquée Adjamé,
StopPoint:node:6474138987,5.3588624,-4.028167,Gare Nord Adjamé,
StopPoint:node:6474138988,5.3765848,-4.0264424,Macaci,
StopPoint:node:6474138989,5.3906844,-4.0210349999999995,Filtisac,
StopPoint:node:6474138990,5.4085961,-4.0162968999999995,Anador,
StopPoint:node:6474138991,5.4135848,-4.0162419,Banco,
StopPoint:node:6474138992,5.4183764,-4.0173344,Saint-Joseph 2ème Arrêt,
StopPoint:node:6474138993,5.4236545,-4.0190623,4 Arrêts,
StopPoint:node:6474138994,5.4315506,-4.020231,Bar Ivoire Abobo,
StopPoint:node:6474138995,5.4363436,-4.0203885999999995,DGI Abobo,
StopPoint:node:6474138996,5.4382274,-4.0189201,Avenue Kaza,
StopPoint:node:6474138997,5.4383935999999995,-4.0138587,Carrefour Akeïkoi,
StopPoint:node:6474138999,5.3149133,-4.0190636,Terminus 15 Gare Sud SOTRA Plateau,
StopPoint:node:6474139031,5.4350792,-4.0127537,Cité Universitaire Abobo,
StopPoint:node:6474139033,5.4354761,-4.0154322,Quai 15,
StopPoint:node:6614329781,5.3443185,-4.003689,,
StopPoint:node:6720381564,5.3117174,-3.9516293,,
StopPoint:node:6815808830,5.3580852,-3.9641507,Station Shell Riviera 3,
StopPoint:node:6815808831,5.3620442,-3.9591336,Carrefour Palmeraie,
StopPoint:node:6815808832,5.3802452,-3.9672641,Pharmacie Val de Grace,
StopPoint:node:6815808833,5.3866258,-3.9744137999999998,CNPS 9ème Tranche,
StopPoint:node:6815808834,5.4010459,-3.9780244,Marché COCOVICO,
StopPoint:node:6815808835,5.4028903999999995,-3.9783234999999997,Bicici Djibi,
StopPoint:node:6815808838,5.4037729,-3.9857961,Terminus 81/82,
StopPoint:node:6815808839,5.3738506,-3.9618124999999997,Quick Market,
StopPoint:node:6815808840,5.373772799999999,-3.9618580999999997,Quick Market,
StopPoint:node:6815808841,5.3776576,-3.9634251999999996,Commissariat 35è Art.,
StopPoint:node:6815808842,5.3776142,-3.9635563,Commissariat 35è Art.,
StopPoint:node:6815808843,5.3866021,-3.9745307999999997,CNPS 9ème Tranche,
StopPoint:node:6815808844,5.4010469,-3.9781651,Marché COCOVICO,
StopPoint:node:6815808845,5.3695696,-3.958801,Pharmacie du bonheur,
StopPoint:node:6815808846,5.3832059999999995,-3.9725319,Groupe Scolaire St Marc,
StopPoint:node:6815808847,5.3833082,-3.9725091,Groupe Scolaire St Marc,
StopPoint:node:6815960786,7.6694748,-5.049180499999999,3ème Arrêt des Gbaka,
StopPoint:node:6815960886,7.669486099999999,-5.050218399999999,Carrefour Pharmacie,
StopPoint:node:6815960887,7.669467099999999,-5.0529386,5ème Arrêt des Gbaka,
StopPoint:node:6815960888,7.669445499999999,-5.0557593,6ème Arrêt des Gbaka,
StopPoint:node:6815960889,7.669436999999999,-5.0574297,7ème Arrêt des Gbaka,
StopPoint:node:6815960890,7.669422399999999,-5.0595421,Ancien Terminus des Gbaka,
StopPoint:node:6815961286,7.6695072,-5.0469291,2ème Arrêt des Gbaka,
StopPoint:node:6815972585,7.669482599999999,-5.0491869,4ème Arrêt des Gbaka,
StopPoint:node:6815972586,7.6694327,-5.0581293,Carrefour Jaune-Noir,
StopPoint:node:6815972685,7.6694765,-5.051544,4ème Arrêt des Gbaka,
StopPoint:node:6816010586,7.6720159,-5.043031399999999,Arrêt du Banco,
StopPoint:node:6816010685,7.6756074,-5.0402885,Carrefour Santé Mentale,
StopPoint:node:6819328985,5.282598999999999,-3.9692171999999997,,
StopPoint:node:6819329085,5.2892136,-3.9707407,Grand carrefour de Koumassi,
StopPoint:node:6819329086,5.292096,-3.9740699999999998,Ibis Marcory,
StopPoint:node:6819329087,5.3194934,-4.0143679,,
StopPoint:node:6819329185,5.291629299999999,-3.9736909999999996,Ibis Marcory,
StopPoint:node:6819329186,5.2986771,-3.9858813,,
StopPoint:node:6819329285,5.3009007,-3.9897707,Grand carrefour de Marcory,
StopPoint:node:6820855646,5.335819,-3.9767154999999996,Ambassade des USA,
StopPoint:node:6820855647,5.3309825,-3.9728877,Hotel du Golf,
StopPoint:node:6820855648,5.3310452999999995,-3.9729685,Hotel du Golf,
StopPoint:node:6820855649,5.3311581,-3.9577563,Ex Terminus Sotra;Carrefour Sol Beni,
StopPoint:node:6831076677,5.332764,-4.021605,Cathédrale Saint paul,
StopPoint:node:6831076678,5.3300626,-4.0205758,Église Méthodiste Unie de Côte d'Ivoire,
StopPoint:node:6831076679,5.326683699999999,-4.0206105999999995,Cité financière plateau,
StopPoint:node:6831076680,5.3237784,-4.0196251,,
StopPoint:node:6831076681,5.3206226,-4.0196634,Primature,
StopPoint:node:6831076682,5.3148517,-4.0185085,Gare Sud,
StopPoint:node:6832290086,5.2989356999999995,-3.9868728,,
StopPoint:node:6899034705,5.2996481,-4.002239299999999,Gare de bassam,
StopPoint:node:6899034706,5.3004143,-3.9997862,Gendarmerie,
StopPoint:node:6899034707,5.303315,-4.0037983,Notre-dame,
StopPoint:node:6899034708,5.3072484,-4.005186,Pharmacie Nanan Yamousso,
StopPoint:node:6899034709,5.3099574,-4.0061406999999996,Après le pont,
StopPoint:node:6899034710,5.353411599999999,-4.0160602999999995,Adjamé liberté,
StopPoint:node:6899053345,5.3534641,-4.014846299999999,Adjamé liberté,
StopPoint:node:6899053346,5.353536399999999,-4.0120306999999995,Gare de Bingerville,
StopPoint:node:6899053347,5.325075,-4.0152949,Feux du plateau,
StopPoint:node:6899053348,5.310149099999999,-4.0061218,Nanan Yamousso,
StopPoint:node:6899053349,5.2996796999999995,-4.0024275,Gare de bassam,
StopPoint:node:6899241573,5.4200067,-4.0174383,Abobo Gare Mairie,
StopPoint:node:6899241574,5.4142627,-4.0159966,Mobil,
StopPoint:node:6899241575,5.3845867,-4.0214171,Lavage,
StopPoint:node:6899241576,5.37725,-4.0257575,Macaci,
StopPoint:node:6899241577,5.354345899999999,-4.0164004,Adjamé Liberté,
StopPoint:node:6899264970,5.349107,-4.021217399999999,Marché Gouro,
StopPoint:node:6899264971,5.3547097,-4.0163905,Adjamé Liberté,
StopPoint:node:6899264972,5.358734,-4.016791,Station Total,
StopPoint:node:6899264973,5.4215493,-4.0171184,Abobo Gare Mairie,
StopPoint:node:6899886257,5.3146062,-4.0185094999999995,Quai Bus 27,
StopPoint:node:6899886258,5.3146654,-4.018578199999999,Quai Bus 05,
StopPoint:node:6899886259,5.3147325,-4.0186417,Quai Bus 205,
StopPoint:node:6899886260,5.3147831,-4.0187083999999995,Quai Bus 82,
StopPoint:node:6899886261,5.3145542,-4.0184375,Quai Bus 37,
StopPoint:node:6899886262,5.3144903999999995,-4.0183668,Quai Bus 30,
StopPoint:node:6899886263,5.314428599999999,-4.0182975,Quai Bus 06,
StopPoint:node:6899886264,5.3143635,-4.018237399999999,Quai Bus 10,
StopPoint:node:6900316196,5.3464187999999995,-3.9971869,,
StopPoint:node:6900316197,5.345070799999999,-3.9978154999999997,,
StopPoint:node:6900316198,5.3353193,-3.9976103999999997,,
StopPoint:node:6900316199,5.3353627999999995,-3.9999658,,
StopPoint:node:6900317090,5.3377541,-3.9961887999999997,,
StopPoint:node:6902638988,5.4195822,-4.0153259,Carrefour Marché,
StopPoint:node:6902638989,5.4186048,-4.0135168,Petro Ivoire,
StopPoint:node:6902638990,5.4168519,-4.010197499999999,Au Bar,
StopPoint:node:6902638991,5.415799799999999,-4.0080786,Petit Carrefour,
StopPoint:node:6902638992,5.4152517,-4.0066972,Samaké,
StopPoint:node:6902638993,5.3994804,-4.0064893999999995,Azur,
StopPoint:node:6902638994,5.3780522,-4.0070352,Panneau ZOO,
StopPoint:node:6902638995,5.4197843,-4.0157753,Abobo Gare Mairie,
StopPoint:node:6902638996,5.417654799999999,-4.0117095,Ciné Cool,
StopPoint:node:6902638997,5.4144283,-4.0062697,Boulangerie Samake,
StopPoint:node:6902638998,5.410863,-4.0062877,Menuiserie,
StopPoint:node:6902638999,5.4101067,-4.0063067,Tchapatcha,
StopPoint:node:6902639000,5.4092677,-4.0063409,Chaine Avion,
StopPoint:node:6902639001,5.4051187999999994,-4.0063993,Pharmacie Dokui,
StopPoint:node:6902639002,5.4036347,-4.0064176,SODECI,
StopPoint:node:6902639003,5.4020966999999995,-4.0064567,Étage Noir,
StopPoint:node:6902639004,5.4001879,-4.0064867,Mobil,
StopPoint:node:6902639005,5.396817899999999,-4.006353,Arrêt Dokui,
StopPoint:node:6902639006,5.3929293,-4.005793,Ancien Feu,
StopPoint:node:6902639007,5.3872276,-4.005732,Bangui,
StopPoint:node:6902639008,5.385186399999999,-4.0060126,Vidange,
StopPoint:node:6902639009,5.382931,-4.0063262,HMA,
StopPoint:node:6902639010,5.3721147,-4.011813399999999,Carrefour paillet,
StopPoint:node:6902639011,5.3653116999999995,-4.0157875999999995,Carrefour 2 Plateaux,
StopPoint:node:6902639012,5.3553427,-4.0160678,Gare des gbakas d’Abobo par le zoo,
StopPoint:node:6902868224,5.4184847,-4.0136214,Petro Ivoire,
StopPoint:node:6902868225,5.4176462999999995,-4.0120067,Ciné Cool,
StopPoint:node:6902868226,5.4167077,-4.0102981,Au Bar,
StopPoint:node:6902868227,5.405193499999999,-4.0065403,Pharmacie Dokui,
StopPoint:node:6902868228,5.403670099999999,-4.0065873,SODECI,
StopPoint:node:6902868229,5.40212,-4.0066315,Étage Noir,
StopPoint:node:6902868230,5.4002026999999995,-4.0066597,Mobil,
StopPoint:node:6902868231,5.3994577,-4.0066033999999995,Azur,
StopPoint:node:6902868232,5.3965911,-4.0064518,Arrêt Dokui,
StopPoint:node:6902868233,5.3928327,-4.0059301,Ancien Feu,
StopPoint:node:6902868234,5.387252999999999,-4.005859,Bangui,
StopPoint:node:6902868235,5.3852715,-4.0061326,Vidange,
StopPoint:node:6902868236,5.3829176,-4.0064505,HMA,
StopPoint:node:6902868237,5.3716859,-4.0122238999999995,Carrefour paillet,
StopPoint:node:6902868238,5.365405,-4.0159576,Carrefour 2 Plateaux,
StopPoint:node:6902868239,5.3633371,-4.016812799999999,Willy Agban,
StopPoint:node:6902868240,5.366829699999999,-4.0152076999999995,Cimetière,
StopPoint:node:6902868241,5.3765336999999995,-4.0094557,CIE,
StopPoint:node:6902868242,5.378993899999999,-4.0070149,ZOO,
StopPoint:node:6902868243,5.390055299999999,-4.0056173,Eglise,
StopPoint:node:6902868244,5.41329,-4.0099567,Pharmacie Racines,
StopPoint:node:6902868245,5.4197638999999995,-4.0160257,Abobo Gare Mairie,
StopPoint:node:6902975747,5.4500231999999995,-4.0135154,Christine Bar,
StopPoint:node:6902975748,5.4607326,-4.0109926,Terminus Akéikoi village,
StopPoint:node:6902975749,5.45899,-4.010773299999999,A l'école,
StopPoint:node:6902975750,5.455207,-4.0112928,Destin,
StopPoint:node:6902975751,5.4542173,-4.0119565999999995,Monnaie,
StopPoint:node:6902975752,5.4528753,-4.012859199999999,André Bar,
StopPoint:node:6902975753,5.451049299999999,-4.0133357,Carrefour marché,
StopPoint:node:6902975754,5.446249,-4.0143571,A l'étage,
StopPoint:node:6902975755,5.4394513,-4.0141843,Boulangerie,
StopPoint:node:6902975756,5.438403999999999,-4.0140794,Carrefour Akéikoi,
StopPoint:node:6902975757,5.4225885,-4.0161726,Gare Gbaka Akeïkoi,
StopPoint:node:6903084141,5.4510779,-4.0134484,Carrefour marché,
StopPoint:node:6903084142,5.4530404,-4.0129173,André Bar,
StopPoint:node:6903084143,5.4542793,-4.0120751,Monnaie,
StopPoint:node:6903097494,5.438503,-4.0142825,Au goudron,
StopPoint:node:6903097495,5.4227551,-4.0160694,Gare Abobo,
StopPoint:node:6903097496,5.4230450999999995,-4.013945,Au tournant,
StopPoint:node:6903097497,5.427878199999999,-4.0146817,Au Feu,
StopPoint:node:6903097498,5.4334549999999995,-4.0124107,Célibataire,
StopPoint:node:6903097499,5.4352003,-4.0124925,JAUG,
StopPoint:node:6903097500,5.4383232999999995,-4.013588299999999,Cité,
StopPoint:node:6903097501,5.4490169999999996,-4.0138345,Boulangerie,
StopPoint:node:6903097502,5.4500084,-4.0136722,Christine Bar,
StopPoint:node:6903097503,5.455298399999999,-4.01134,Destin,
StopPoint:node:6903097504,5.4594778999999996,-4.0109968,A l'ecole,
StopPoint:node:6903097505,5.460775,-4.0111868,Terminus Akéikoi Village,
StopPoint:node:6903193216,5.4429020999999995,-4.0144891,Mosquée,
StopPoint:node:6903193217,5.4463091,-4.0144891,A l'étage,
StopPoint:node:6903268819,5.421939999999999,-4.0165181,Abobo Gare Mairie,
StopPoint:node:6903268820,5.4223082,-4.0163196999999995,Gare Abobo Kennedy-Marché/ Mosquée Ado,
StopPoint:node:6903268821,5.4211585,-4.0100057,Station,
StopPoint:node:6903268822,5.4236887,-4.0015221,Kennedy Marché,
StopPoint:node:6903296476,5.4221255,-4.011717,Mosquée,
StopPoint:node:6903296477,5.418662299999999,-4.0060106,Carrefour Kennedy,
StopPoint:node:6903296478,5.418612899999999,-4.005922099999999,Carrefour Kennedy,
StopPoint:node:6903296479,5.4213432,-4.0039185,Makan Traoré,
StopPoint:node:6903296480,5.4236156,-4.0015453,Au marché,
StopPoint:node:6903296481,5.423623,-4.0021714,A Gauche,
StopPoint:node:6903296482,5.4214359,-4.0037249,Makan Traoré,
StopPoint:node:6903347574,5.3286546,-3.9324706,Cocody Riviera M'badon,
StopPoint:node:6903347575,5.3293417,-3.9332266999999996,Nouveau marché,
StopPoint:node:6903347576,5.329969,-3.9339945999999997,Ancien marché,
StopPoint:node:6903347577,5.3307516999999995,-3.9350316999999997,Centre de santé Municipal de M'Badon,
StopPoint:node:6903347578,5.331008,-3.9352625999999997,La ferme,
StopPoint:node:6903347579,5.3354667,-3.9393933,Pharmacie,
StopPoint:node:6903347580,5.3384154,-3.9427407,2 poteaux,
StopPoint:node:6903347581,5.339948,-3.945032,Antenne,
StopPoint:node:6903347582,5.345935,-3.9457017,Carrefour Akouédo,
StopPoint:node:6903347583,5.3461517,-3.9471732999999998,École,
StopPoint:node:6903347584,5.3458217,-3.9505483,2ème rond-point,
StopPoint:node:6903370485,5.3503400999999995,-4.0227775999999995,Gare en haut,
StopPoint:node:6903374200,5.4210882,-4.0100339,Station,
StopPoint:node:6903374201,5.4196516,-4.00729,Immeuble Cercueil,
StopPoint:node:6903374202,5.4195595,-4.007456299999999,Immeuble Cercueil,
StopPoint:node:6903397403,5.4234507999999995,-3.9978515,Terminus mosquée Ado Kenedy,
StopPoint:node:6903397404,5.421577399999999,-3.9978488999999997,A l'école,
StopPoint:node:6903397405,5.419861699999999,-3.9979408999999997,,
StopPoint:node:6903397406,5.4185867,-3.9980282999999996,Dahico,
StopPoint:node:6903397407,5.4157689,-3.9992242,Étage Noir,
StopPoint:node:6903406997,5.415578,-4.0059533,Samake,
StopPoint:node:6903406998,5.415667099999999,-4.0037419,Eglise,
StopPoint:node:6903504058,5.415458,-4.0037763,Eglise,
StopPoint:node:6903504059,5.415650299999999,-4.0007588,Monastère,
StopPoint:node:6903504060,5.415433999999999,-4.0008192,Monastère,
StopPoint:node:6903504061,5.4157731,-3.9994029999999996,Étage Noir,
StopPoint:node:6903504062,5.4185995,-3.9981731999999996,Dahico,
StopPoint:node:6903525051,5.4339087,-4.027213199999999,Hôtel du centre,
StopPoint:node:6903525052,5.437374999999999,-4.0337387,A la Pompe,
StopPoint:node:6903525053,5.4377181,-4.036061699999999,Dépôt,
StopPoint:node:6903525054,5.4390604,-4.0445275,Anokoi,
StopPoint:node:6903525055,5.439303,-4.044482299999999,Anokoi,
StopPoint:node:6903525056,5.4423639999999995,-4.048014,Marahoué,
StopPoint:node:6903525057,5.4439581,-4.0487972,Agripac,
StopPoint:node:6903525058,5.447851099999999,-4.0510489,Terminus,
StopPoint:node:6903525059,5.447979699999999,-4.0508555,Terminus,
StopPoint:node:6903525060,5.4446544999999995,-4.0489498,Agripac,
StopPoint:node:6903525061,5.442501699999999,-4.0477433,Marahoué,
StopPoint:node:6903525062,5.437971699999999,-4.0360936999999995,Dépôt,
StopPoint:node:6903525063,5.4376377,-4.0338519999999995,A la Pompe,
StopPoint:node:6903525064,5.4367133,-4.030245,Marché de Nuit,
StopPoint:node:6903525065,5.4340417,-4.0268939999999995,Hôtel du centre,
StopPoint:node:6903525066,5.4217027,-4.0181394,Abobo Gare,
StopPoint:node:6903535584,5.3489387,-4.0206447,Complexe,
StopPoint:node:6903544086,5.350347999999999,-4.0224464,Gare en haut,
StopPoint:node:6903544087,5.3481387,-4.0180948,Maternité,
StopPoint:node:6903544088,5.3519133,-4.0140933,Adjamé Liberté,
StopPoint:node:6903544089,5.3547793,-4.0029137,2ème pont,
StopPoint:node:6903544090,5.3301187,-3.9339758999999996,Marché,
StopPoint:node:6903602207,5.426323099999999,-4.0203577,Gendarmerie,
StopPoint:node:6903602208,5.4298703999999995,-4.0233336,Mosquée Blanche,
StopPoint:node:6903602209,5.4332218999999995,-4.0262471,Solibra,
StopPoint:node:6903602210,5.4359152,-4.0288774,Château,
StopPoint:node:6903602211,5.4383387999999995,-4.0383071,A l'escalier,
StopPoint:node:6903602212,5.449791299999999,-4.0521369,PK 18 ancien marché,
StopPoint:node:6903602213,5.422047399999999,-4.0184782,Gare abobo,
StopPoint:node:6903602214,5.426046599999999,-4.0204341999999995,Gendarmerie,
StopPoint:node:6903602215,5.426524,-4.0208376,Gendarmerie Avant le Feu,
StopPoint:node:6903602216,5.4297276,-4.0236152,Mosquée Blanche,
StopPoint:node:6903602217,5.4330817,-4.0264367,Solibra,
StopPoint:node:6903602218,5.4357519,-4.0290698,Château,
StopPoint:node:6903602219,5.4365893,-4.030636299999999,Marché de Nuit,
StopPoint:node:6903602220,5.4381949999999994,-4.0392548,A l'escalier,
StopPoint:node:6903602221,5.4382833999999995,-4.0411411,Nouvelle Gare,
StopPoint:node:6903602222,5.4448006,-4.0493193,Agripac Avant le Feu,
StopPoint:node:6903602223,5.4493883,-4.0520966,Station Total,
StopPoint:node:6903602224,5.4499639,-4.052542,PK 18 ancien marché,
StopPoint:node:6903639366,5.3706298,-3.9761195,Attoban camp,
StopPoint:node:6903639367,5.3694267,-3.9776678,Escalier,
StopPoint:node:6903639368,5.3673899,-3.9794185,Pharmacie Saint Bernard,
StopPoint:node:6903639369,5.3658448,-3.9793174,Garage,
StopPoint:node:6903639370,5.365069,-3.9792552,Polyclinique Sacré-Coeur,
StopPoint:node:6903639371,5.3642087,-3.9790994,Jules ferry,
StopPoint:node:6903639372,5.362115,-3.9788028,Hôtel Manhatan,
StopPoint:node:6903639373,5.3589924,-3.978316,Doraville,
StopPoint:node:6903639374,5.3571667,-3.9780678,Pharmacie Saint ange,
StopPoint:node:6903639375,5.356275,-3.9777617,André Malraux,
StopPoint:node:6903639376,5.3505392,-4.0228250999999995,Gare en haut,
StopPoint:node:6903968407,5.3673437,-3.9797086999999998,Pharmacie Saint Bernard,
StopPoint:node:6903968408,5.3655779,-3.9794498,Carrefour garage,
StopPoint:node:6904171063,5.343795,-4.0345832999999995,Attécoubé Terminus 04,
StopPoint:node:6904171064,5.346448,-4.0345467,,
StopPoint:node:6904171065,5.349062399999999,-4.033957,Marché,
StopPoint:node:6904171066,5.3501256999999995,-4.0323329999999995,Station Afriquia,
StopPoint:node:6904171067,5.3524283,-4.0328135,Carrefour Attecoubé,
StopPoint:node:6904171068,5.3574167,-4.030971699999999,,
StopPoint:node:6904171070,5.3513557,-4.0254169,,
StopPoint:node:6904171071,5.3412757,-4.0261721999999995,Diamond Bank,
StopPoint:node:6904171072,5.3381533,-4.0258177,INSP,
StopPoint:node:6904171073,5.3318344,-4.0230192,Tours Administratives,
StopPoint:node:6904171074,5.3264577,-4.0206034,Direction Générale du Budget et des finances,
StopPoint:node:6904171075,5.3237255999999995,-4.0196398,SIB Alpha 2000,
StopPoint:node:6904171076,5.3206809999999995,-4.0196699,Primature,
StopPoint:node:6904171077,5.3089287,-4.0157481,Résidence Cheick Yacouba Sylla,
StopPoint:node:6904171078,5.3094943,-4.0142442,Marché de Treichville,
StopPoint:node:6904171079,5.3109791,-4.0099697,,
StopPoint:node:6904171080,5.3126562999999996,-4.006092,Biafra,
StopPoint:node:6904171081,5.3076137,-3.9933398999999996,Banque Atlantique,
StopPoint:node:6904171082,5.3052787,-3.9888629,Hôtel Hamanieh,
StopPoint:node:6904171083,5.3043263,-3.9869551,Sainte Thérèse,
StopPoint:node:6904171084,5.3064247,-3.9858005,Commissariat du 9 ème,
StopPoint:node:6904188585,5.3088123,-3.9839376,Gare Marcory INJS,
StopPoint:node:6905326498,5.359,-4.0282199,Gare Nord Adjamé,
StopPoint:node:6905326502,5.4332783,-4.0266433,,
StopPoint:node:6905326503,5.436626599999999,-4.0307925,Château,
StopPoint:node:6905326504,5.438006,-4.0384056,A l'escalier,
StopPoint:node:6905344262,5.3842341,-4.0219992,Préfecture de Police,
StopPoint:node:6905344263,5.437631199999999,-4.0355739,Arrêt Centre Bus,
StopPoint:node:6905344264,5.438464499999999,-4.0390169,Terminus 45 À l'escalier,
StopPoint:node:6905344265,5.4378844,-4.035139099999999,Arrêt Centre Bus,
StopPoint:node:6905344266,5.436579099999999,-4.0299254,Château,
StopPoint:node:6905344267,5.4329374,-4.0258991,,
StopPoint:node:6905344268,5.4285317,-4.0222533,Gendarmerie,
StopPoint:node:6905344273,5.3836467,-4.0219024,Préfecture de Police,
StopPoint:node:6905553518,5.4284566,-4.0225102,Gendarmerie,
StopPoint:node:6905553519,5.4327155,-4.026167399999999,,
StopPoint:node:6905719605,5.3485635,-4.0257128,,
StopPoint:node:6905719606,5.3299376,-4.0206943,Église Méthodiste Unie de Côte d'Ivoire,
StopPoint:node:6905719607,5.3251425,-4.020123,Pigier Côte d'Ivoire,
StopPoint:node:6905719608,5.3087593,-4.017755999999999,Hôpital du port,
StopPoint:node:6905719609,5.3097408,-4.0148458,Fédération Ivoirienne de Football,
StopPoint:node:6905719610,5.3073425,-4.0116929,Pharmacie du Rond-point,
StopPoint:node:6905719611,5.308965,-4.0070781,,
StopPoint:node:6905719612,5.3080275,-4.0054419999999995,Nanan Yamousso,
StopPoint:node:6905719613,5.304886799999999,-4.0043435999999994,Paroisse Notre-Dame de Treichville,
StopPoint:node:6905719614,5.3045623,-4.0015648,Pharmacie de l'Entente,
StopPoint:node:6905719615,5.3055251,-3.9988289999999997,Marché de Belleville,
StopPoint:node:6905719616,5.3075214,-3.9931172,Banque Atlantique,
StopPoint:node:6905719617,5.3049722,-3.9887867999999997,Hôtel Hamanieh,
StopPoint:node:6905719618,5.305530399999999,-3.9860979,Commissariat du 9éme,
StopPoint:node:6905719619,5.308097,-3.9847286,Station Shell,
StopPoint:node:6905719620,5.358496499999999,-4.0284151,,
StopPoint:node:6905719621,5.357702,-4.0304950999999996,,
StopPoint:node:6905719622,5.3515438,-4.0321715,Carrefour Attecoubé,
StopPoint:node:6905719623,5.348960099999999,-4.03386,Banque Atlantique,
StopPoint:node:6905719624,5.347110799999999,-4.0344245999999995,Commissariat du 10ᵉ arrondissement,
StopPoint:node:6905719625,5.3437946,-4.0344802,Attécoubé Terminus 04,
StopPoint:node:6905772459,5.325143799999999,-4.0218561,Saint Paul,
StopPoint:node:6905772460,5.328080099999999,-4.0239815,Immeuble Sogephia Hévéa,
StopPoint:node:6905772461,5.333772199999999,-4.0245063,Musée du Plateau,
StopPoint:node:6905772462,5.3485461,-4.0257581,,
StopPoint:node:6905772463,5.3763384,-4.0265232,Macaci,
StopPoint:node:6905772464,5.4363532999999995,-4.0204417,Impôts,
StopPoint:node:6905772466,5.4383593,-4.0160545999999995,Cours Sociaux,
StopPoint:node:6905842302,5.4306274,-4.020108,,
StopPoint:node:6905842305,5.358995,-4.0275679,Gare Nord Adjamé,
StopPoint:node:6905842307,5.3252327,-4.0224693,Long Champs,
StopPoint:node:6906463287,5.293874,-3.9560101999999997,Gare Koumassi,
StopPoint:node:6906463288,5.2928524,-3.9602508,Pharmacie Ehilie,
StopPoint:node:6906463289,5.2913568,-3.966735,Mosquée,
StopPoint:node:6906463290,5.2956714,-3.980944,Échangeur de Marcory,
StopPoint:node:6906463291,5.2997216,-3.9882986,Grand carrefour de Marcory,
StopPoint:node:6906463292,5.2998183999999995,-3.9976917,,
StopPoint:node:6906463293,5.2999472999999995,-4.0025987999999995,Gare de Bassam,
StopPoint:node:6906463294,5.3020919,-4.0033565,Ecobank,
StopPoint:node:6906463295,5.3080716,-4.0054593999999994,Nanan Yamousso,
StopPoint:node:6906463296,5.3533384,-4.0155204,Adjamé Liberté,
StopPoint:node:6906507833,5.436589199999999,-4.0124238,BICICI,
StopPoint:node:6906575629,5.3546594,-4.0164466999999995,Adjamé - Liberté,
StopPoint:node:6906575630,5.3631417,-4.0169033,Williams-Ville,
StopPoint:node:6906575631,5.3655867,-4.0158567,Carrefour 2 plateaux,
StopPoint:node:6906575632,5.3662557,-4.0156117,,
StopPoint:node:6906575633,5.3716139,-4.0122292999999996,Paillet,
StopPoint:node:6906575634,5.3740689999999995,-4.0112578,,
StopPoint:node:6906575635,5.3898833,-4.005605,,
StopPoint:node:6906575636,5.4044207,-4.0065324,,
StopPoint:node:6906575637,5.411251699999999,-4.0064267,,
StopPoint:node:6906575638,5.4126483,-4.0064133,ANADER,
StopPoint:node:6906590689,5.4148754,-4.0064263,Samake,
StopPoint:node:6906590691,5.41527,-4.0068417,Samake,
StopPoint:node:6906590692,5.4101482999999995,-4.0063151999999995,Chaîne avion,
StopPoint:node:6906590693,5.4073533,-4.0063867,1ere Boutique,
StopPoint:node:6906590694,5.365925,-4.015556699999999,Carrefour 2 plateaux,
StopPoint:node:6906590695,5.3546456,-4.0163006999999995,Adajmé - Liberté,
StopPoint:node:6906596960,5.353479999999999,-4.015518999999999,Adjamé Liberté,
StopPoint:node:6906596961,5.3100359,-4.006088399999999,Nanan Yamousso,
StopPoint:node:6906596962,5.305453,-4.0044588999999995,Karwil,
StopPoint:node:6906596963,5.3036369,-4.0037978,Notre-dame,
StopPoint:node:6906596964,5.3003893,-4.0026015,Gare de Bassam,
StopPoint:node:6906596965,5.2998444,-3.9983918,,
StopPoint:node:6906596966,5.2988102,-3.9861353999999998,Cap Sud,
StopPoint:node:6906596967,5.2959919,-3.9810298,Échangeur de Marcory,
StopPoint:node:6906596968,5.2912433,-3.9675637999999998,Auto-école,
StopPoint:node:6906596969,5.2919737,-3.9644939999999997,,
StopPoint:node:6906596970,5.292783,-3.9610540999999997,Boulangerie,
StopPoint:node:6906699462,5.3790616,-4.0069935999999995,ZOO,
StopPoint:node:6906699463,5.407409899999999,-4.0065631,1ere Boutique,
StopPoint:node:6906699464,5.3719142,-4.0119007,Paillet,
StopPoint:node:6906699465,5.389897899999999,-4.0054621,,
StopPoint:node:6906699466,5.396764699999999,-4.0065121999999995,Arrêt Dokui,
StopPoint:node:6906699467,5.396868899999999,-4.0063445,Arrêt Dokui,
StopPoint:node:6906699468,5.4122417,-4.0062788,ANADER,
StopPoint:node:6906699469,5.4169293,-4.0106347,,
StopPoint:node:6906699470,5.4170815,-4.0106158999999995,,
StopPoint:node:6906699471,5.4197017,-4.0159367999999995,Abobo Mairie,
StopPoint:node:6906699472,5.4197587,-4.0157101,Abobo Mairie,
