stop_point_id,lat,lon,name,first_stop_area_id
StopPoint:node:768587345,5.3164001999999995,-4.0892200999999995,Terminus 27 Niangon Sud a Gauche,
StopPoint:node:768587373,5.3198813,-4.0803926,Pharmacie St Martin,
StopPoint:node:775786985,5.3309391999999995,-3.9578221,Ex Terminus Sotra;Carrefour Sol Beni,
StopPoint:node:2003993801,7.669522799999999,-5.0442792999999995,1er Arrêt des Gbaka,
StopPoint:node:2381298633,5.3608351,-4.0171228999999995,Agban Gendarmerie,
StopPoint:node:2444131222,5.344239,-4.0182667,Fraternite Matin,
StopPoint:node:2460519991,5.3423405,-4.0732826,Terminus Saint Andre,
StopPoint:node:2476303039,5.3068867,-3.9773022,Arrêt de bus (03-31),
StopPoint:node:2476306856,5.311706,-3.9732735,Arrêt de bus (03-31),
StopPoint:node:2493226931,5.3413464,-4.0238610999999995,Mission Libanaise Adjame,
StopPoint:node:2493730483,5.2942027,-3.9551669,Gare Koumassi,
StopPoint:node:2578019447,5.4072226,-3.9998706,Gare de Woro-Woro d’Abobo,
StopPoint:node:2760843854,5.3121054,-3.9451593,Terminus 56 Koumassi Nord-Est,
StopPoint:node:2902894063,5.3538554,-4.016554,Gare de wôrô-wôrô de Williamsville,
StopPoint:node:2948146673,5.3396167,-4.0832298,Terminus 47 Yopougon Attie,
StopPoint:node:3067761599,5.3396156999999995,-4.0912463,Carrefour Obama,
StopPoint:node:3067766418,5.340233899999999,-4.1003523,,
StopPoint:node:3067766555,5.3400523,-4.0973501,Mosquee Maroc,
StopPoint:node:3075945505,5.3423254,-4.0738294999999995,Paroisse St Andre,
StopPoint:node:3137208051,5.3427541,-4.0668084,Mairie Selmer,
StopPoint:node:3137217828,5.3436761,-4.0709484,Lycee Williams Ponty,
StopPoint:node:3137243386,5.344676799999999,-4.0679411,Mairie Selmer Yopougon,
StopPoint:node:3142681418,5.3807202,-3.9644698,,
StopPoint:node:3145728412,5.3531115,-3.979568,Carrefour Riviera 2,
StopPoint:node:3218806159,5.3117002,-3.9487191999999998,Ancien Terminus 32,
StopPoint:node:3326195828,5.3368705,-4.0037743,Cite Rouge Cocody,
StopPoint:node:3396926870,5.2892377,-3.9691935,Wôrô-wôrô,
StopPoint:node:3605638544,5.3458049999999995,-3.9901614999999997,Arrêt de bus électriques- Université,
StopPoint:node:3666057101,5.3470566999999996,-4.0884501,Pharmacie Port-Bouet 2,
StopPoint:node:3781465058,7.6847015,-5.0450308999999995,,
StopPoint:node:3806582754,7.6820602,-5.0301887,,
StopPoint:node:3950172145,5.3493487,-4.0734515,Ficgayo,
StopPoint:node:4021778943,7.6890129,-5.03025,,
StopPoint:node:4029208102,5.3616655,-3.9973725,ENA,
StopPoint:node:4038594408,5.4744709,-3.8045586,Station Autobus,
StopPoint:node:4107240493,5.276244,-3.9668949,Gare de Wôrô Wôrô,
StopPoint:node:4107240891,5.274284499999999,-3.9787017999999996,Pressing Bietry,
StopPoint:node:4165904524,7.6879789999999995,-5.0280607999999996,,
StopPoint:node:4411562346,5.3296306,-4.061373,Terminus Phalenes,
StopPoint:node:4430910012,7.6796280999999995,-5.0279685999999995,,
StopPoint:node:4633269025,5.4818964,-4.0515794,,
StopPoint:node:4659944490,5.3133456,-3.9439194,Koumassi terminus 05,
StopPoint:node:4782251624,5.2745951,-3.9810261,Rodrigue,
StopPoint:node:4819697544,5.3159469,-4.089632,Gare Azito,
StopPoint:node:4858065722,5.348518299999999,-4.0039133,Gare Plateau de la vie,
StopPoint:node:4999458824,5.2948647,-4.004071,Terminus CHU de Treichville,
StopPoint:node:5030710121,5.7632777,-3.9789021,Carrefour Pecto,
StopPoint:node:5057165424,5.3022132,-4.01176,ex Pharmacie Mokey,
StopPoint:node:5057297311,5.3369029,-4.0039817,Cite Rouge Cocody,
StopPoint:node:5061017421,5.7585332,-3.9823245,Carrefour Affoue,
StopPoint:node:5068855021,5.4158358,-3.9933102999999996,Terminus Abobo Baoule,
StopPoint:node:5143730222,5.328322,-3.940785,Terminus 28-41-702,
StopPoint:node:5143751833,5.3284404,-3.9410459999999996,Terminus 28-41-702,
StopPoint:node:5147952122,5.4218733,-4.0165052,"Gare de gbaka Dokui, Zoo, Paillet",
StopPoint:node:5151223622,5.4215881,-4.016037799999999,Gare Angré Pétro Ivoire,
StopPoint:node:5156837725,5.3537326,-4.0280581,Gare de wôrô-wôrô Treichville Marcory Koumassi,
StopPoint:node:5281604034,5.3437686,-4.0711802,Lycee Williams Ponty,
StopPoint:node:5299283324,5.342251699999999,-4.0664755999999995,,
StopPoint:node:5414376221,5.3555889,-4.0205264,Eglise Universelle,
StopPoint:node:5425049447,5.3222796,-4.0530042,Gare de Bingerville,
StopPoint:node:5481186122,7.4541637,-4.3380804,KKM TRANSPORT,
StopPoint:node:5535571842,5.132472,-3.2925646,Traversée pirogue,
StopPoint:node:5739489700,5.3415108,-4.062361,Arret Complexe,
StopPoint:node:5892858715,5.788166599999999,-6.600311,GARE D'OKROUYO,
StopPoint:node:5892933976,5.7886863,-6.6001027,Gare TSF Odienne,
StopPoint:node:5892936985,5.7884965,-6.6001362,Gare d’Odienné,
StopPoint:node:5892936988,5.7884081,-6.600043299999999,Gare de Dibievi,
StopPoint:node:5927302128,5.349342699999999,-4.073208,Ficgayo,
StopPoint:node:5934409413,5.3419853,-4.1003725,Banque Atlantique,
StopPoint:node:5936892363,5.3672637,-4.1023176999999995,Terminus Gesco,
StopPoint:node:5953580661,5.3802148,-3.967326,Pharmacie Val de Grace,
StopPoint:node:5953580666,5.3695413,-3.9587073,Pharmacie du bonheur,
StopPoint:node:5953580667,5.3618751,-3.9593076999999997,Carrefour Palmeraie,
StopPoint:node:5954541438,5.3358519,-3.9767957999999997,Ambassade des USA,
StopPoint:node:5954541440,5.3492831,-4.0024723,La Vie,
StopPoint:node:5957239660,5.4121523,-3.9820156,Angré Château,
StopPoint:node:5957239661,5.4046007,-3.9908227,Petro Ivoire Angré,
StopPoint:node:5957239662,5.3989563,-3.9915292,Pharmacie Angre,
StopPoint:node:5957239665,5.3615936,-3.9975967999999997,ENA,
StopPoint:node:5957239666,5.328577999999999,-4.0050058,Ambassade Allemagne,
StopPoint:node:5957239667,5.3223289,-4.0026166,Blockhauss,
StopPoint:node:5958266385,5.3975314,-3.9860303,Pharmacie des Laureades,
StopPoint:node:5958266386,5.3806538999999995,-3.9881293999999996,ESIT,
StopPoint:node:5958266387,5.3735181,-3.9843170999999997,Commissariat 30e Arrondissement,
StopPoint:node:5958266388,5.370110899999999,-3.9813020999999997,Paroisse St Bernard,
StopPoint:node:5958266389,5.3667415,-3.9795819,Djire Telecom,
StopPoint:node:5958266390,5.3573659,-3.9782153,Pharmacie St Ange,
StopPoint:node:5958266391,5.355884199999999,-3.9780178,Andre Malraux,
StopPoint:node:5958266392,5.3541894999999995,-3.9773239,Terminus 705 Riviera 2,
StopPoint:node:5961735082,5.4239193,-4.0499566,Gare Gbaka Anonkou-Sodeci,
StopPoint:node:5969971283,5.4412099,-4.0438867,Gare TCV internationale,
StopPoint:node:5969971284,5.4410557,-4.0438713,Malex transport Abobo,
StopPoint:node:5969980985,5.4408594,-4.0438035999999995,Gare de Doropo CTDD,
StopPoint:node:5969980986,5.4406845,-4.0437855,CITR Gare,
StopPoint:node:5970004128,5.441141099999999,-4.0420555,UTB,
StopPoint:node:5970004130,5.4410229999999995,-4.0426737,Gare KTI,
StopPoint:node:5970004131,5.440974199999999,-4.0428038,Gare Transport Sana Rasmane,
StopPoint:node:5970092069,5.4419835,-4.0421976,Banco gare internationale,
StopPoint:node:5970092070,5.441953499999999,-4.0423732999999995,GTT Gare de Bondoukou,
StopPoint:node:5970092071,5.441891399999999,-4.0426288,LC Gare Abidjan Odienné,
StopPoint:node:5970092072,5.4418694,-4.0428641,Gare Internationale Bembeya,
StopPoint:node:5970117203,5.4416645,-4.042155999999999,Gare d'Akoupé,
StopPoint:node:5970117204,5.4416578,-4.0422486,Gare d'Adzopé,
StopPoint:node:5970117205,5.4416497999999995,-4.0423143,Gare d'Agboville,
StopPoint:node:5970117206,5.4416284,-4.0424377,Gare de Agnibilekro,
StopPoint:node:5970117207,5.4416191,-4.0424846,Gare de Bondoukou,
StopPoint:node:5970179320,5.4409429,-4.0429338999999995,Africa Tours Transport,
StopPoint:node:5970179322,5.4410497,-4.0425068,Gare de Dabakala SD DF,
StopPoint:node:5970179324,5.4410609999999995,-4.0423666,Gare MTK,
StopPoint:node:5970201534,5.4415764,-4.042667,SBTA International,
StopPoint:node:5970201535,5.4415483,-4.0428454,SABE transport,
StopPoint:node:5970201536,5.4414722,-4.0429473,International Rambo Transport,
StopPoint:node:5972785307,5.4411491,-4.0423678999999995,KF Transport,
StopPoint:node:5972785308,5.4411745,-4.0421923,Abass Transport,
StopPoint:node:5972785309,5.4412012,-4.0420419999999995,Pelessi Transport,
StopPoint:node:5972785310,5.4419695,-4.0422647,Bani Transport International,
StopPoint:node:5972785311,5.4416804999999995,-4.0420863,KFT Transport,
StopPoint:node:5972785313,5.441535,-4.0422318,UTRAKO Transport,
StopPoint:node:5972785314,5.4414948999999995,-4.0423927,YT Transport,
StopPoint:node:5972785315,5.4414482,-4.0426442,GDF Transport,
StopPoint:node:5972785316,5.4411157999999995,-4.0425148,Rahimo Transport,
StopPoint:node:5972785317,5.4413921,-4.0428856,Groupe Sito CMTM Transport,
StopPoint:node:5972785318,5.4410183,-4.0429968999999994,MT Transport,
StopPoint:node:6098848385,5.3247785,-4.0207447,Externat St Paul,
StopPoint:node:6136850508,5.3238429,-4.0205724,Terminus Hotel de Ville,
StopPoint:node:6136858285,5.3226718,-4.0205491,Terminus Hotel de Ville,
StopPoint:node:6195348341,5.3317403,-4.021322,CCIA,
StopPoint:node:6281030720,5.4148488,-4.0333198999999995,Terminus Sagbe,
StopPoint:node:6474137921,5.4351427999999995,-4.0144508,Cite Universitaire Abobo,
StopPoint:node:6474137923,5.4363019,-4.0125364999999995,BICICI,
StopPoint:node:6474137925,5.4382744999999995,-4.0147435,Carrefour Akeikoi,
StopPoint:node:6474137927,5.4380618,-4.0192416,Centre Priere Evangelique CPERES,
StopPoint:node:6474137929,5.435615299999999,-4.0202585,Camp Commando Abobo,
StopPoint:node:6474137931,5.430545899999999,-4.0200587,Station Shell,
StopPoint:node:6474137932,5.4263959,-4.0198488,Pharmacie Etoile,
StopPoint:node:6474137934,5.4234101,-4.0187446,Pharmacie la Me,
StopPoint:node:6474137936,5.4171616,-4.0166455,College St Joseph,
StopPoint:node:6474137938,5.4131162,-4.015975,Arret BANCO,
StopPoint:node:6474137940,5.4088631,-4.0160118,Arret ANADOR,
StopPoint:node:6474137942,5.392647,-4.0207427,Universite Nangui Abrogoua,
StopPoint:node:6474137944,5.3774907,-4.0255918,MACACI,
StopPoint:node:6474137946,5.3592555,-4.0276664,Gare Nord,
StopPoint:node:6474137948,5.3591608,-4.0274455,Gare Nord,
StopPoint:node:6474137950,5.3533294,-4.0257308,Mosquee Adjame,
StopPoint:node:6474137952,5.3477196,-4.0256469,EPP Satigui,
StopPoint:node:6474137954,5.3431728,-4.026009,Mairie Adjame,
StopPoint:node:6474137956,5.3312371999999995,-4.0238205,Gare Cite Administrative,
StopPoint:node:6474137958,5.3278684,-4.0238401999999995,Immeuble Sogefiha Plateau,
StopPoint:node:6474137967,5.314504299999999,-4.0181049,Gare Sud,
StopPoint:node:6474137979,5.3177648,-4.0196849,PTT Plateau,
StopPoint:node:6474137980,5.322570499999999,-4.0197518,Galerie du Parc,
StopPoint:node:6474137981,5.3338581,-4.0246637,Musee du Plateau,
StopPoint:node:6474137982,5.3385734,-4.0260408,INSP,
StopPoint:node:6474137983,5.3434534,-4.026047,Mairie Adjame,
StopPoint:node:6474137984,5.3455045,-4.0258809,Forum,
StopPoint:node:6474138985,5.350509199999999,-4.0255491999999995,Pharmacie Banco,
StopPoint:node:6474138986,5.353519299999999,-4.0259256,Mosquee Adjame,
StopPoint:node:6474138987,5.3586829,-4.028099,Gare Nord,
StopPoint:node:6474138988,5.3765165999999995,-4.0264128999999995,MACACI,
StopPoint:node:6474138989,5.3907204,-4.021018199999999,Arret FILTISAC,
StopPoint:node:6474138990,5.4084091,-4.0163458,Arret ANADOR,
StopPoint:node:6474138991,5.4136529,-4.0162151,Arret BANCO,
StopPoint:node:6474138992,5.4184158,-4.0173257,College St Joseph,
StopPoint:node:6474138993,5.4237088,-4.0190791,Pharmacie la Me,
StopPoint:node:6474138994,5.4315506,-4.020231,Station Shell,
StopPoint:node:6474138995,5.4363436,-4.0203885999999995,DGI,
StopPoint:node:6474138996,5.4382274,-4.0189201,Ancien SODECI,
StopPoint:node:6474138997,5.4383935999999995,-4.0138587,Carrefour Akeïkoi,
StopPoint:node:6474138999,5.3149589,-4.0190673,Gare Sud,
StopPoint:node:6474139033,5.4354930999999995,-4.015426199999999,Gare Sotra Abobo,
StopPoint:node:6815808830,5.3580852,-3.9641507,Station Shell Riviera 3,
StopPoint:node:6815808832,5.3802452,-3.9672641,Pharmacie Val de Grace,
StopPoint:node:6815808833,5.3865761,-3.9744202,CNPS Angre,
StopPoint:node:6815808834,5.4010646,-3.9780417999999997,Marché COCOVICO,
StopPoint:node:6815808839,5.3738506,-3.9618124999999997,Arret Quick Marcket,
StopPoint:node:6815808840,5.373772799999999,-3.9618580999999997,Arret Quick Marcket,
StopPoint:node:6815808841,5.3776576,-3.9634251999999996,Commissariat 35è Art.,
StopPoint:node:6815808843,5.3864094,-3.97449,CNPS Angre,
StopPoint:node:6815808845,5.3698521999999995,-3.9586316999999998,Pharmacie du Bonheur,
StopPoint:node:6815808846,5.3832198,-3.9725215,Groupe scolaire St Marc,
StopPoint:node:6815808847,5.3833082,-3.9725091,Groupe Scolaire St Marc,
StopPoint:node:6815960786,7.6694748,-5.049180499999999,3ème Arrêt des Gbaka,
StopPoint:node:6815960887,7.669467099999999,-5.0529386,5ème Arrêt des Gbaka,
StopPoint:node:6815960888,7.669445499999999,-5.0557593,6ème Arrêt des Gbaka,
StopPoint:node:6815960889,7.669436999999999,-5.0574297,7ème Arrêt des Gbaka,
StopPoint:node:6815960890,7.669422399999999,-5.0595421,Ancien Terminus des Gbaka,
StopPoint:node:6815961286,7.6695072,-5.0469291,2ème Arrêt des Gbaka,
StopPoint:node:6815972585,7.669482599999999,-5.0491869,4ème Arrêt des Gbaka,
StopPoint:node:6815972586,7.6694327,-5.0581293,Carrefour Jaune-Noir,
StopPoint:node:6815972685,7.6694765,-5.051544,4e Arrêt des Gbaka,
StopPoint:node:6816010586,7.6720159,-5.043031399999999,Arrêt du Banco,
StopPoint:node:6816010685,7.6756074,-5.0402885,Carrefour Santé Mentale,
StopPoint:node:6819328985,5.282598999999999,-3.9692171999999997,CIE BIA SUD,
StopPoint:node:6819329085,5.2892136,-3.9707407,Terminus Grd Carrefour Koumassi,
StopPoint:node:6819329086,5.2921087,-3.9741109,Hotel Ibis Marcory,
StopPoint:node:6819329185,5.291629299999999,-3.9736909999999996,Hotel Ibis Marcory,
StopPoint:node:6819329285,5.3008179,-3.9896513,Chimtec Grd Carrefour Marcory,
StopPoint:node:6820855647,5.3310014,-3.9728755,Golf Hotel,
StopPoint:node:6820855648,5.330939,-3.9730679999999996,Golf Hotel,
StopPoint:node:6831076677,5.332764,-4.021605,Cathedrale Saint Paul,
StopPoint:node:6831076678,5.3302749,-4.0205625,Palais de Justice,
StopPoint:node:6831076682,5.314870399999999,-4.0185085,Gare Sud,
StopPoint:node:6832290086,5.2989253,-3.9867654999999997,CAP SUD Marcory,
StopPoint:node:6899034705,5.3003331,-4.0027516,Gare de Bassam,
StopPoint:node:6899034707,5.303315,-4.0037983,Notre-dame,
StopPoint:node:6899034708,5.3072484,-4.005186,Pharmacie Nanan Yamousso,
StopPoint:node:6899034709,5.3099574,-4.0061406999999996,Après le Pont,
StopPoint:node:6899034710,5.353411599999999,-4.0160602999999995,Adjame Liberte,
StopPoint:node:6899053345,5.3534437,-4.014858,Adjamé Liberte,
StopPoint:node:6899053346,5.353536399999999,-4.0120306999999995,Gare de Bingerville,
StopPoint:node:6899053347,5.3251137,-4.0152171,Feux du plateau,
StopPoint:node:6899053348,5.310149099999999,-4.0061218,Nanan Yamousso,
StopPoint:node:6899053349,5.3003494,-4.0026642,Gare de Bassam,
StopPoint:node:6899241573,5.4200067,-4.0174383,Abobo Gare Mairie,
StopPoint:node:6899241574,5.414375499999999,-4.0159818,Mobil,
StopPoint:node:6899241575,5.384619799999999,-4.0215227,Lavage,
StopPoint:node:6899241576,5.37725,-4.0257575,Macaci,
StopPoint:node:6899241577,5.354345899999999,-4.0164004,Adjamé Liberté,
StopPoint:node:6899264970,5.349107,-4.021217399999999,Marché Gouro,
StopPoint:node:6899264971,5.354717,-4.016375099999999,Adjamé Liberté,
StopPoint:node:6899264972,5.358734,-4.016791,Station Total,
StopPoint:node:6899264973,5.4215493,-4.0171184,Abobo Gare Mairie,
StopPoint:node:6900317090,5.3377541,-3.9961887999999997,,
StopPoint:node:6902638988,5.4195759,-4.0153362999999995,Carrefour Marché,
StopPoint:node:6902638989,5.4186048,-4.0135168,Petro Ivoire,
StopPoint:node:6902638990,5.4168519,-4.010197499999999,Au Bar,
StopPoint:node:6902638991,5.415799799999999,-4.0080786,Petit Carrefour,
StopPoint:node:6902638992,5.415233799999999,-4.0067032,Samaké,
StopPoint:node:6902638993,5.3995011,-4.0064914,Azur,
StopPoint:node:6902638994,5.3780522,-4.0070352,Panneau ZOO,
StopPoint:node:6902638995,5.4197843,-4.0157753,Abobo Gare Mairie,
StopPoint:node:6902638996,5.417654799999999,-4.0117095,Ciné Cool,
StopPoint:node:6902638997,5.4144283,-4.0062697,Boulangerie Samake,
StopPoint:node:6902638998,5.410863,-4.0062877,Menuiserie,
StopPoint:node:6902638999,5.4101067,-4.0063067,Tchapatcha,
StopPoint:node:6902639000,5.4092677,-4.0063409,Chaîne Avion,
StopPoint:node:6902639001,5.4051187999999994,-4.0063993,Pharmacie Dokui,
StopPoint:node:6902639002,5.4036347,-4.0064176,SODECI,
StopPoint:node:6902639003,5.4020966999999995,-4.0064567,Étage Noir,
StopPoint:node:6902639004,5.4001879,-4.0064867,Azur Mobile,
StopPoint:node:6902639005,5.396817899999999,-4.006353,Arrêt Dokui,
StopPoint:node:6902639006,5.3929293,-4.005793,Ancien Feu,
StopPoint:node:6902639007,5.3872276,-4.005732,Bangui,
StopPoint:node:6902639008,5.385186399999999,-4.0060126,Vidange,
StopPoint:node:6902639009,5.382931,-4.0063262,HMA,
StopPoint:node:6902639010,5.3721147,-4.011813399999999,Carrefour paillet,
StopPoint:node:6902639011,5.3653116999999995,-4.0157875999999995,Carrefour 2 Plateaux,
StopPoint:node:6902639012,5.3553627,-4.0160705,Gare des gbakas d’Abobo par le zoo,
StopPoint:node:6902868224,5.4184847,-4.0136214,Petro Ivoire,
StopPoint:node:6902868225,5.4176462999999995,-4.0120067,Ciné Cool,
StopPoint:node:6902868226,5.4167077,-4.0102981,Au Bar,
StopPoint:node:6902868227,5.4052001999999995,-4.0065175,Pharmacie Dokui,
StopPoint:node:6902868228,5.403670099999999,-4.0065873,SODECI,
StopPoint:node:6902868229,5.40212,-4.0066315,Étage Noir,
StopPoint:node:6902868230,5.4002026999999995,-4.0066275,Azur Mobile,
StopPoint:node:6902868231,5.3994577,-4.0066033999999995,Azur,
StopPoint:node:6902868232,5.3965911,-4.0064518,Arrêt Dokui,
StopPoint:node:6902868233,5.3928327,-4.0059301,Ancien Feu,
StopPoint:node:6902868234,5.3872984,-4.0058536,Bangui,
StopPoint:node:6902868235,5.3853034,-4.0060952,Vidange,
StopPoint:node:6902868236,5.382906999999999,-4.0064117999999995,HMA,
StopPoint:node:6902868237,5.3716859,-4.0122238999999995,Carrefour paillet,
StopPoint:node:6902868238,5.365405,-4.0159576,Carrefour 2 Plateaux,
StopPoint:node:6902868239,5.3633371,-4.016812799999999,Willy Agban,
StopPoint:node:6902868240,5.366829699999999,-4.0152076999999995,Cimetière,
StopPoint:node:6902868241,5.3765336999999995,-4.0094557,CIE,
StopPoint:node:6902868242,5.378993899999999,-4.0070149,ZOO,
StopPoint:node:6902868243,5.390055299999999,-4.0056173,Eglise,
StopPoint:node:6902868244,5.41329,-4.0099567,Pharmacie Racines,
StopPoint:node:6902868245,5.4197638999999995,-4.0160257,Abobo Gare Mairie,
StopPoint:node:6902975747,5.4500231999999995,-4.0135154,Christine Bar,
StopPoint:node:6902975748,5.4607326,-4.0109926,Akéikoi Village,
StopPoint:node:6902975749,5.45899,-4.010773299999999,À l'École,
StopPoint:node:6902975750,5.455207,-4.0112928,Destin,
StopPoint:node:6902975751,5.4542173,-4.0119565999999995,Monnaie,
StopPoint:node:6902975752,5.4528753,-4.012859199999999,André Bar,
StopPoint:node:6902975753,5.451049299999999,-4.0133357,Carrefour Marché,
StopPoint:node:6902975754,5.446249,-4.0143571,A l'étage,
StopPoint:node:6902975755,5.4394513,-4.0141843,Boulangerie,
StopPoint:node:6902975756,5.438405299999999,-4.0140378,Carrefour Akéikoi,
StopPoint:node:6902975757,5.4225885,-4.0161726,Gare Gbaka Akeïkoi,
StopPoint:node:6903084141,5.451033799999999,-4.0134417,Carrefour Marché,
StopPoint:node:6903084142,5.4530404,-4.0129173,André Bar,
StopPoint:node:6903084143,5.4542793,-4.0120751,Monnaie,
StopPoint:node:6903097494,5.438503,-4.0142825,Au goudron,
StopPoint:node:6903097495,5.4227551,-4.0160694,Abobo CIE,
StopPoint:node:6903097496,5.4230450999999995,-4.013945,Au tournant,
StopPoint:node:6903097497,5.4278809,-4.0146415,Au Lycée,
StopPoint:node:6903097498,5.4334549999999995,-4.0124107,Célibataire,
StopPoint:node:6903097499,5.4352003,-4.0124925,JAUG,
StopPoint:node:6903097500,5.4383232999999995,-4.013588299999999,Cité,
StopPoint:node:6903097501,5.4490169999999996,-4.0138345,Boulangerie,
StopPoint:node:6903097502,5.4500084,-4.0136722,Christine Bar,
StopPoint:node:6903097503,5.455298399999999,-4.01134,Destin,
StopPoint:node:6903097504,5.4594778999999996,-4.0109968,À l'École,
StopPoint:node:6903097505,5.460775,-4.0111868,Akéikoi Village,
StopPoint:node:6903193216,5.4429020999999995,-4.0144891,Mosquée,
StopPoint:node:6903193217,5.4463091,-4.0144891,A l'étage,
StopPoint:node:6903268819,5.421939999999999,-4.0165181,Abobo Gare Mairie,
StopPoint:node:6903268820,5.4223082,-4.0163196999999995,Gare Abobo Kennedy-Marché/ Mosquée Ado,
StopPoint:node:6903268821,5.4211585,-4.0100057,Station,
StopPoint:node:6903268822,5.4236887,-4.0015221,Kennedy Marché,
StopPoint:node:6903296476,5.4220774,-4.011661999999999,Mosquée,
StopPoint:node:6903296477,5.4186996999999995,-4.0059623,Carrefour Kennedy,
StopPoint:node:6903296478,5.418665,-4.0058919,Carrefour Kennedy,
StopPoint:node:6903296479,5.4211643,-4.0039432999999995,Makan Traoré,
StopPoint:node:6903296480,5.4236156,-4.0015453,Au marché,
StopPoint:node:6903296481,5.423623,-4.0021714,A Gauche,
StopPoint:node:6903296482,5.4214359,-4.0037249,Makan Traoré,
StopPoint:node:6903347574,5.3286546,-3.9324706,Cocody Riviera M'badon,
StopPoint:node:6903347575,5.3293417,-3.9332266999999996,Nouveau marché,
StopPoint:node:6903347576,5.329969,-3.9339945999999997,Ancien marché,
StopPoint:node:6903347577,5.3307516999999995,-3.9350316999999997,Centre de santé Municipal de M'Badon,
StopPoint:node:6903347578,5.331008,-3.9352625999999997,La ferme,
StopPoint:node:6903347579,5.3353839,-3.9393933,Pharmacie,
StopPoint:node:6903347580,5.3384154,-3.9427407,2 poteaux,
StopPoint:node:6903347581,5.339948,-3.945032,Antenne,
StopPoint:node:6903347582,5.345935,-3.9457017,Carrefour Akouédo,
StopPoint:node:6903347583,5.3461517,-3.9471732999999998,École,
StopPoint:node:6903347584,5.3458217,-3.9505483,2ème rond-point,
StopPoint:node:6903370485,5.3503568,-4.0227501,Gare en haut,
StopPoint:node:6903374200,5.4210882,-4.0100339,Station,
StopPoint:node:6903374201,5.4196516,-4.00729,Immeuble Cercueil,
StopPoint:node:6903374202,5.4195942,-4.0074087,Immeuble Cercueil,
StopPoint:node:6903397403,5.4234507999999995,-3.9978515,Mosquée Ado Kenedy,
StopPoint:node:6903397404,5.421577399999999,-3.9978488999999997,À l'École,
StopPoint:node:6903397405,5.419861699999999,-3.9979408999999997,,
StopPoint:node:6903397406,5.4185867,-3.9980282999999996,Dahico,
StopPoint:node:6903397407,5.4157689,-3.9992242,Étage Noir,
StopPoint:node:6903406997,5.415578,-4.0059533,Samaké,
StopPoint:node:6903406998,5.415601199999999,-4.0037563,Eglise,
StopPoint:node:6903504058,5.4155166999999995,-4.0037625,Eglise,
StopPoint:node:6903504059,5.4155583,-4.0007112,Monastère,
StopPoint:node:6903504060,5.4154526,-4.0008035,Monastère,
StopPoint:node:6903504061,5.4157731,-3.9994029999999996,Étage Noir,
StopPoint:node:6903504062,5.4185995,-3.9981731999999996,Dahico,
StopPoint:node:6903525051,5.4339087,-4.027213199999999,Hôtel du centre,
StopPoint:node:6903525052,5.437374999999999,-4.0337387,A la Pompe,
StopPoint:node:6903525053,5.4377181,-4.036061699999999,Dépôt,
StopPoint:node:6903525054,5.4390697,-4.0444772,Anokoi Garage,
StopPoint:node:6903525055,5.439303,-4.044482299999999,Anokoi Garage,
StopPoint:node:6903525056,5.442221099999999,-4.0479148,Marahoué,
StopPoint:node:6903525057,5.4439581,-4.0487972,Agripac,
StopPoint:node:6903525058,5.447775,-4.0509604,Terminus,
StopPoint:node:6903525059,5.447979699999999,-4.0508555,Terminus,
StopPoint:node:6903525060,5.4455178,-4.0494069,Delice de france,
StopPoint:node:6903525061,5.442501699999999,-4.0477433,Marahoué,
StopPoint:node:6903525062,5.437971699999999,-4.0360936999999995,Dépôt,
StopPoint:node:6903525063,5.4376377,-4.0338519999999995,A la Pompe,
StopPoint:node:6903525064,5.4367133,-4.030245,Marché de Nuit,
StopPoint:node:6903525065,5.4340417,-4.0268939999999995,Hôtel du centre,
StopPoint:node:6903525066,5.4217034,-4.018191,Abobo Gare,
StopPoint:node:6903535584,5.3489387,-4.0206447,Complexe,
StopPoint:node:6903544086,5.350347999999999,-4.0224464,Gare en haut,
StopPoint:node:6903544087,5.3481387,-4.0180948,Maternité,
StopPoint:node:6903544088,5.3521054999999995,-4.014163,Adjamé Liberté,
StopPoint:node:6903544089,5.3547793,-4.0029137,2ème pont,
StopPoint:node:6903544090,5.3301187,-3.9339758999999996,Marché,
StopPoint:node:6903602207,5.4263194,-4.020372399999999,Abobo Gendarmerie,
StopPoint:node:6903602208,5.4298703999999995,-4.0233336,Mosquée Blanche,
StopPoint:node:6903602209,5.4332218999999995,-4.0262471,Solibra,
StopPoint:node:6903602210,5.4359152,-4.0288774,Château,
StopPoint:node:6903602211,5.438337499999999,-4.0383548,A l'escalier,
StopPoint:node:6903602212,5.449791299999999,-4.0521369,PK 18 ancien marché,
StopPoint:node:6903602213,5.4220421,-4.0184916,Abobo Gare,
StopPoint:node:6903602214,5.426046599999999,-4.0204341999999995,Abobo Gendarmerie,
StopPoint:node:6903602215,5.426524,-4.0208376,Gendarmerie Avant le Feu,
StopPoint:node:6903602216,5.429985299999999,-4.0238002999999996,Mosquée Blanche,
StopPoint:node:6903602217,5.4330817,-4.0264367,Solibra,
StopPoint:node:6903602218,5.4357519,-4.0290698,Château,
StopPoint:node:6903602219,5.4365893,-4.030636299999999,Marché de Nuit,
StopPoint:node:6903602220,5.4380495,-4.0384581,Anokoi Koute,
StopPoint:node:6903602221,5.4382833999999995,-4.0411411,Nouvelle Gare,
StopPoint:node:6903602222,5.4448006,-4.0493193,Agripac Avant le Feu,
StopPoint:node:6903602223,5.4493883,-4.0520966,Station Total,
StopPoint:node:6903602224,5.4499639,-4.052542,PK 18 ancien marché,
StopPoint:node:6903639366,5.370557,-3.9761316,Attoban camp,
StopPoint:node:6903639367,5.3694267,-3.9776678,Escalier,
StopPoint:node:6903639368,5.3673899,-3.9794185,Pharmacie Saint Bernard,
StopPoint:node:6903639369,5.3658448,-3.9793174,Carrefour Garage,
StopPoint:node:6903639370,5.365069,-3.9792552,Polyclinique Sacré-Coeur,
StopPoint:node:6903639371,5.3642087,-3.9790994,Jules ferry,
StopPoint:node:6903639372,5.362115,-3.9788028,Hôtel Manhatan,
StopPoint:node:6903639373,5.3589924,-3.978316,Doraville,
StopPoint:node:6903639374,5.3571667,-3.9780678,Pharmacie Saint ange,
StopPoint:node:6903639375,5.356275,-3.9777617,André Malraux,
StopPoint:node:6903639376,5.3505392,-4.0228250999999995,Gare en haut,
StopPoint:node:6903968407,5.3672689,-3.9796695,Pharmacie Saint Bernard,
StopPoint:node:6903968408,5.3655779,-3.9794498,Carrefour Garage,
StopPoint:node:6904171063,5.3437969999999995,-4.034584,Terminus 04,
StopPoint:node:6904171064,5.347175099999999,-4.0345265999999995,Pharmacie Montana,
StopPoint:node:6904171065,5.3493094,-4.0337236,Arret BACI,
StopPoint:node:6904171067,5.3525203999999995,-4.032837,Carrefour Attecoube,
StopPoint:node:6904171068,5.357704399999999,-4.0307504,Carrefour Pharmacie Agban,
StopPoint:node:6904171070,5.3514868,-4.0254045,Pharmacie Banco,
StopPoint:node:6904171071,5.3411241,-4.026163599999999,Pharmacie Sante,
StopPoint:node:6904171072,5.3378872,-4.0257309,INSP,
StopPoint:node:6904171073,5.3318113,-4.023098,CCIA,
StopPoint:node:6904171074,5.326534199999999,-4.020575,Cite Financiere Plateau,
StopPoint:node:6904171075,5.3236634,-4.0196347,SIB Alpha 2000,
StopPoint:node:6904171076,5.3206143,-4.0196363,Cash Center Plateau,
StopPoint:node:6904171077,5.3089274,-4.015768899999999,Station Oil Lybia,
StopPoint:node:6904171078,5.3093794,-4.0146586,Maison du Congres,
StopPoint:node:6904171079,5.3110906,-4.0097343,Cité Sopim,
StopPoint:node:6904171080,5.3122156,-4.0057661,Biafra,
StopPoint:node:6904171081,5.3076127,-3.9933398999999996,Station Total Marcory,
StopPoint:node:6904171082,5.3052787,-3.9888629,Hotel Hamanieh,
StopPoint:node:6904171083,5.304183999999999,-3.9870316,Eglise Sainte Therese,
StopPoint:node:6904171084,5.3064094,-3.9857804,Commissariat 9e Marcory,
StopPoint:node:6904188585,5.3088083,-3.9839517,Gare Marcory,
StopPoint:node:6905326498,5.3589119,-4.0281877,Gare Nord,
StopPoint:node:6905326503,5.436626599999999,-4.0307925,Petro Ivoire,
StopPoint:node:6905326504,5.438006,-4.0384056,A l'escalier,
StopPoint:node:6905344262,5.3843863,-4.0219228,Station Shell Prefecture de Police,
StopPoint:node:6905344263,5.4375577,-4.035134,Arret Departement Reseau Bus Abobo,
StopPoint:node:6905344264,5.4384178,-4.0389029,Lycee Municipal,
StopPoint:node:6905344265,5.437856399999999,-4.0351431,Arret Departement Reseau Bus Abobo,
StopPoint:node:6905344266,5.4365245,-4.0299553999999995,Marche de Nuit,
StopPoint:node:6905344267,5.432893099999999,-4.025968499999999,College IRIS 2,
StopPoint:node:6905344268,5.428411199999999,-4.0222108,Terminus 77 Gendarmerie,
StopPoint:node:6905344273,5.3835706,-4.0219949,Station Shell Prefecture de Police,
StopPoint:node:6905553518,5.4279893,-4.022081,Terminus 77 Gendarmerie,
StopPoint:node:6905553519,5.4327155,-4.026167399999999,,
StopPoint:node:6905719605,5.3484937,-4.0256884,Dispensaire Adjame,
StopPoint:node:6905719606,5.3299145,-4.0206797,Palais de Justice,
StopPoint:node:6905719607,5.3251503,-4.0200778999999995,60 Lgts Plateau,
StopPoint:node:6905719608,5.3087867,-4.0177138,Dispensaire du Pont FHB,
StopPoint:node:6905719609,5.3100198999999995,-4.0140592,Marche Treichville,
StopPoint:node:6905719610,5.3073765999999996,-4.0115761999999995,Rond point Treichville,
StopPoint:node:6905719611,5.309041199999999,-4.0068854,Ex Seny Fofana,
StopPoint:node:6905719612,5.3080989,-4.0054621,Lycee Moderne Treichville,
StopPoint:node:6905719613,5.3048835,-4.004353399999999,St Jean Bosco,
StopPoint:node:6905719614,5.3045734,-4.0015787,Carrefour Entente,
StopPoint:node:6905719616,5.3072970999999995,-3.9937099999999996,Pharmacie des Lagunes,
StopPoint:node:6905719617,5.304907399999999,-3.988758,Hotel Hamanieh,
StopPoint:node:6905719618,5.305479699999999,-3.9860864,Eglise Sainte Therese,
StopPoint:node:6905719619,5.3080789,-3.9847276999999997,Station Shell Marcory,
StopPoint:node:6905719620,5.357958399999999,-4.0281455,SITARAIL Adjame,
StopPoint:node:6905719621,5.3580632,-4.0303013,Carrefour Pharmacie Agban,
StopPoint:node:6905719622,5.3514737,-4.0321567,Pharmacie Attecoube,
StopPoint:node:6905719623,5.348942699999999,-4.034098,Arret BACI,
StopPoint:node:6905719624,5.3474246,-4.0343991,Mairie Attecoube,
StopPoint:node:6905719625,5.3443374,-4.0344681,Terminus Attecoube,
StopPoint:node:6905772459,5.325159,-4.0219589,Laboratoire Longchamp,
StopPoint:node:6905772460,5.3282887,-4.0239541,Immeuble Sogefiha Plateau,
StopPoint:node:6905772461,5.333687299999999,-4.0244802,Musee du Plateau,
StopPoint:node:6905772466,5.4383273,-4.0158105,Cours Sociaux,
StopPoint:node:6905842305,5.359039699999999,-4.0275685999999995,Gare Nord,
StopPoint:node:6905842307,5.3252327,-4.0224693,Laboratoire Longchamp,
StopPoint:node:6906463287,5.293902,-3.9560074999999997,Terminus Koumassi,
StopPoint:node:6906463288,5.2928790999999995,-3.9602554999999997,Grand marche Koumassi,
StopPoint:node:6906463289,5.2913568,-3.966735,Grande Mosquee Koumassi,
StopPoint:node:6906463290,5.2956714,-3.980944,Echangeur Marcory DHL,
StopPoint:node:6906463291,5.2998527,-3.98845,Sitel Carrefour Marcory,
StopPoint:node:6906463292,5.299793,-3.9976447999999998,College Moderne Autoroute,
StopPoint:node:6906463293,5.2998201,-4.0025923,Gare Bassam,
StopPoint:node:6906463294,5.3018733,-4.0032831,Clinique la Rosette,
StopPoint:node:6906463296,5.3534011999999995,-4.0155251,Adjame Liberte,
StopPoint:node:6906507833,5.436440999999999,-4.0123977,BICICI,
StopPoint:node:6906575629,5.3546274,-4.0164507,Carrefour Liberte Adjame,
StopPoint:node:6906575631,5.365819699999999,-4.0157829,Arret Departement Reseau Bus Williamsville,
StopPoint:node:6906575633,5.3716139,-4.0122292999999996,Carrefour Paillet,
StopPoint:node:6906575636,5.4046023,-4.0065096,Pharmacie Dokui,
StopPoint:node:6906575638,5.4126296,-4.0064093,ANADER,
StopPoint:node:6906590693,5.4073519999999995,-4.0063787,1ere Boutique,
StopPoint:node:6906590694,5.365679399999999,-4.0156385,Carrefour 2pltx,
StopPoint:node:6906590695,5.3546002,-4.0162927,Carrefour Liberte Adjame,
StopPoint:node:6906596960,5.3534764,-4.0157863,Adjame Liberte,
StopPoint:node:6906596961,5.3099691,-4.0060213,Lycee Moderne Treichville,
StopPoint:node:6906596962,5.3054556,-4.0044322999999995,Notre Dame de Treichville,
StopPoint:node:6906596963,5.3026007,-4.0034377999999995,Clinique la Rosette,
StopPoint:node:6906596964,5.3002397,-4.0025559,Gare Bassam,
StopPoint:node:6906596965,5.2997816,-3.9984729,College Moderne Autoroute,
StopPoint:node:6906596966,5.2987728,-3.9861152,CAP SUD Marcory,
StopPoint:node:6906596967,5.2959350999999995,-3.981013,Echangeur Marcory DHL,
StopPoint:node:6906596968,5.2912433,-3.9675637999999998,Grande Mosquee Koumassi,
StopPoint:node:6906596969,5.2919737,-3.9644939999999997,Eglise St Etienne,
StopPoint:node:6906596970,5.2927833,-3.9610551,Grand Marche Koumassi,
StopPoint:node:6906699462,5.3790616,-4.0069935999999995,Carrefour Zoo,
StopPoint:node:6906699463,5.4074178999999996,-4.0064652,1ere Boutique,
StopPoint:node:6906699464,5.372398899999999,-4.0116794,Carrefour Paillet,
StopPoint:node:6906699466,5.3967794,-4.0064606,Arret Dokui,
StopPoint:node:6906699467,5.3969917,-4.0063645999999995,Arret Dokui,
StopPoint:node:6906699468,5.4121402,-4.0062842,ANADER Abobo,
StopPoint:node:6906699469,5.4169293,-4.0106347,Station Total Samake,
StopPoint:node:6906699470,5.4170093999999995,-4.0105132999999995,Supermarche Bon Prix,
StopPoint:node:6906699471,5.4197017,-4.0159367999999995,Nouvelle Mairie Abobo,
StopPoint:node:6906699472,5.419751199999999,-4.0156192,Abobo Mairie,
StopPoint:node:6907121506,5.3675641,-4.0235294,Terminus Williamsville,
StopPoint:node:6907121507,5.365907099999999,-4.0207446,Marche Williamsville,
StopPoint:node:6907121508,5.3643529,-4.0189161,Ex. College Ozanga,
StopPoint:node:6907121509,5.3576084999999996,-4.0160138,Carine Couture,
StopPoint:node:6907121510,5.3501391,-4.0169929,Pharmacie le Belier,
StopPoint:node:6907121511,5.3417335999999995,-4.0230855,Pharmacie Reboul,
StopPoint:node:6907121512,5.3220152,-4.018503,Marche Plateau,
StopPoint:node:6907121513,5.3219502,-4.0170059,Institut Francais Plateau,
StopPoint:node:6907121514,5.3195011999999995,-4.0144649,CNPS Plateau,
StopPoint:node:6907121515,5.3088742,-3.9840679999999997,Gare Marcory,
StopPoint:node:6907141795,5.3422089999999995,-4.0033579,RTI,
StopPoint:node:6907141796,5.347487,-4.0027238999999994,Arret CIRT,
StopPoint:node:6907141797,5.3356810999999995,-4.0007380999999995,Marche Cocody,
StopPoint:node:6907141798,5.3232894,-4.0021679,Terminus Blockausso,
StopPoint:node:6907141799,5.3278237,-4.0013589,Banque Mondiale,
StopPoint:node:6907141800,5.3355267,-4.0007573,Marche Cocody,
StopPoint:node:6907141801,5.338417199999999,-4.0038072,CIE Cocody St-Jean,
StopPoint:node:6907141802,5.351668699999999,-4.0021569999999995,Cite CNPS,
StopPoint:node:6907141803,5.3587491,-4.0274510999999995,Gare Nord,
StopPoint:node:6907147644,5.3543654,-4.0180323,Station Corlay Renault,
StopPoint:node:6907147645,5.3478734999999995,-4.0101289,Pont Lycee Technique,
StopPoint:node:6907147646,5.344280599999999,-4.0038018,SODEMI,
StopPoint:node:6907147647,5.3404792,-4.0033259,RTI,
StopPoint:node:6907147648,5.336444,-3.9999757,Allocodrome Cocody,
StopPoint:node:6907147649,5.3334363,-4.0003179,PMI Cocody,
StopPoint:node:6907147650,5.3280617,-4.00118,Banque Mondiale,
StopPoint:node:6907147651,5.323287,-4.0020444,Terminus Blockausso,
StopPoint:node:6907154300,5.3528511,-4.0168481,Boulangerie Top baguette,
StopPoint:node:6907154301,5.3472669,-4.0171149999999995,220 logements,
StopPoint:node:6907157792,5.3589598,-4.0273707,Gare Nord,
StopPoint:node:6907157793,5.355978599999999,-4.0213836,Super Marche Bon Prix Adjame,
StopPoint:node:6907157795,5.339614999999999,-4.0005869999999994,College Mermoz,
StopPoint:node:6908599212,5.346489399999999,-3.9946368,Gare Campus,
StopPoint:node:6908599213,5.343718,-4.001318599999999,ISTC,
StopPoint:node:6908599215,5.4354971999999995,-4.0153091,Gare Sotra Abobo,
StopPoint:node:6908618074,5.3456863,-3.9968969999999997,INSAAC,
StopPoint:node:6908618077,5.427395,-4.016795,Konate Freinet,
StopPoint:node:6908618078,5.4286537,-4.0146633,Lycee Moderne Abobo,
StopPoint:node:6908728765,5.4338220999999995,-4.01227,Pharmacie Sogefia,
StopPoint:node:6908728766,5.432646699999999,-4.013389399999999,15e Arrondissement Abobo,
StopPoint:node:6908728767,5.4273213,-4.0162121,Konate Freinet,
StopPoint:node:6908728771,5.343821,-4.0008199,ISTC,
StopPoint:node:6908728772,5.3462119,-3.9937237999999997,Gare Campus,
StopPoint:node:6908782549,5.4316857999999995,-4.014810499999999,EPP Anges Noirs,
StopPoint:node:6908782550,5.429723,-4.014638,Lycee Moderne Abobo,
StopPoint:node:6908782552,5.3450486999999995,-3.9978675999999997,INSAAC,
StopPoint:node:6908914485,5.357415,-4.0160582,Carine Couture,
StopPoint:node:6908914486,5.3491257,-4.0171632,Cours socio éducatif,
StopPoint:node:6908914487,5.3082112,-3.9996571,Piscine Etat,
StopPoint:node:6908914488,5.308997,-3.9839919,Gare Marcory,
StopPoint:node:6908914491,5.3503722,-4.0170975,Pharmacie Belier,
StopPoint:node:6908914492,5.3418097,-4.0230188,Pharmacie Reboul,
StopPoint:node:6908914494,5.321186,-4.0183783,Marche Plateau,
StopPoint:node:6908914495,5.321624,-4.0167836999999995,Pyramide Plateau,
StopPoint:node:6908914496,5.3184312,-4.0145266,Immeuble le General,
StopPoint:node:6908914498,5.3641632999999995,-4.0188502999999995,Croix Bleue,
StopPoint:node:6908914499,5.3653249,-4.0202826,Mosquee Williamsville,
StopPoint:node:6908914500,5.3670874,-4.0235066,Terminus Williamsville,
StopPoint:node:6909039462,5.3589179,-4.0316714,Station OLA Cite Fairmont,
StopPoint:node:6909039468,5.3079377,-4.015952599999999,Cite Policiere,
StopPoint:node:6909039469,5.2956902999999995,-4.0044056,Carrefour CHU,
StopPoint:node:6909039470,5.2927425999999995,-3.9984452999999998,Arret Technibat,
StopPoint:node:6909039471,5.291459199999999,-3.9958234,Arret Peugeot,
StopPoint:node:6909108450,5.305032199999999,-4.014925799999999,2e Arrondissement Treichville,
StopPoint:node:6909121487,5.3088407,-3.9840126999999996,Gare Marcory,
StopPoint:node:6909208699,5.2969542999999994,-4.0071031999999995,Parc des Sports,
StopPoint:node:6909208700,5.2896019,-3.9909352,DROCOLOR,
StopPoint:node:6909225529,5.361879999999999,-4.0724972,Carrefour Marche Andokoua,
StopPoint:node:6909225530,5.3647534,-4.074565199999999,Epp Konate Yopougon,
StopPoint:node:6909225533,5.3727101,-4.0961792,Darling,
StopPoint:node:6909225534,5.374225699999999,-4.0895635,Sonaco,
StopPoint:node:6909225535,5.3727219999999996,-4.0867558,Nestle Yopougon,
StopPoint:node:6909225536,5.3745633,-4.0781781,Arret 1er Carrefour,
StopPoint:node:6909225537,5.370369999999999,-4.0796829,Carrefour Zone,
StopPoint:node:6909225538,5.3688806,-4.0795353,SGBCI Carrefour Zone Industrielle,
StopPoint:node:6909225539,5.3670367,-4.0761986,Arret Departement Reseau Bus Yopougon,
StopPoint:node:6909225541,5.3612471,-4.0702482,Station Total Andokoua,
StopPoint:node:6909225542,5.362301899999999,-4.067870399999999,Lycee Andokoua,
StopPoint:node:6909225543,5.3615148,-4.0667894,Ivoire Couture,
StopPoint:node:6909225544,5.3585831,-4.0278578,Gare Nord,
StopPoint:node:6909225545,5.3146892999999995,-4.0183048999999995,Gare Sud,
StopPoint:node:6909237619,5.2948873,-4.0033153,Arret CHU,
StopPoint:node:6909237622,5.301843,-3.9881789,Boulangerie Pain Chaud Marcory,
StopPoint:node:6909237624,5.293159,-3.9994180999999998,PTT km4,
StopPoint:node:6909237625,5.3019628,-4.0139436,Ancien BRACODI,
StopPoint:node:6909237626,5.3049363,-4.0149937,2e Arrondissement Treichville,
StopPoint:node:6909237627,5.307809799999999,-4.0160085,Cite Policiere,
StopPoint:node:6909237631,5.3591166999999995,-4.0279602,Gare Nord,
StopPoint:node:6909237632,5.3588457,-4.031965899999999,Station OLA Cite Fairmont,
StopPoint:node:6909237633,5.358198,-4.0363999,Terminus Cite Fairmont,
StopPoint:node:6909430718,5.3765208,-4.094158,Carrefour MICAO,
StopPoint:node:6909430721,5.3621938,-4.0678369,Lycee Andokoua,
StopPoint:node:6909430722,5.3607938,-4.0710622,Station Total Andokoua,
StopPoint:node:6909430723,5.3626998,-4.0736921,Carrefour Marche Andokoua,
StopPoint:node:6909430724,5.365409,-4.0742996,Epp Konate Yopougon,
StopPoint:node:6909430725,5.36707,-4.0764347,Arret Departement Reseau Bus Yopougon,
StopPoint:node:6909430727,5.368765799999999,-4.0795433999999995,SGBCI Carrefour Zone Industrielle,
StopPoint:node:6909430728,5.3699698,-4.0819788,Arret Bernabe,
StopPoint:node:6909430729,5.3740098,-4.089510199999999,Sonaco,
StopPoint:node:6909430730,5.3741528,-4.0958456,Terminus MICAO,
StopPoint:node:6909521603,5.2645607,-3.9848774,Foyer Polyvalent,
StopPoint:node:6909521605,5.257664999999999,-3.9849267,CIE Vridi Cite,
StopPoint:node:6909521606,5.2558823,-3.9955537999999997,Arret SIR,
StopPoint:node:6909521607,5.2637874,-3.9989429999999997,CPMA,
StopPoint:node:6909521608,5.2704314,-4.0062621,Pont de Vridi,
StopPoint:node:6909521609,5.297835699999999,-4.0143099,Etablissement Rey Port,
StopPoint:node:6909521610,5.3005436,-4.0175241,Sovinci Port,
StopPoint:node:6909521611,5.305037,-4.0231458,Commissariat du Port,
StopPoint:node:6909521612,5.3069217,-4.0211455,Grand Moulin,
StopPoint:node:6909521613,5.3088117,-4.0179252,Arret Bollore,
StopPoint:node:6909521614,5.3058112,-4.0117916,Avenue 11 Rue 12,
StopPoint:node:6909521615,5.303947099999999,-4.0111419999999995,Avenue 15 Rue 12,
StopPoint:node:6909521616,5.3040254,-4.0034158,Notre Dame de la Paix,
StopPoint:node:6909521617,5.3056173,-3.9988142,Arret Belleville,
StopPoint:node:6909521620,5.3087649,-3.9838717999999997,Gare Marcory,
StopPoint:node:6909546905,5.2666116999999995,-3.9871938,Terminus 53 Vridi Cite,
StopPoint:node:6909546906,5.259526,-3.9818252,SODECI Vridi Cite,
StopPoint:node:6909546908,5.2589843,-3.9979156999999996,GESTOCI,
StopPoint:node:6909546909,5.2676511999999995,-4.0031425,Simat,
StopPoint:node:6909546911,5.2821643,-4.0084685,Unilever,
StopPoint:node:6909546912,5.2864977,-4.008455,Siege SOTRA,
StopPoint:node:6909546913,5.2922709999999995,-4.008424,Outillage Port,
StopPoint:node:6909546915,5.3029759,-4.0212547,SOEM Port,
StopPoint:node:6909546916,5.309804,-4.0149741,Siege FIF (Marche Treichville),
StopPoint:node:6909546917,5.3059215,-4.0050815,Carrrefour St Jean Bosco,
StopPoint:node:6909707221,5.3226268,-4.1045114,Terminus 39 NSD,
StopPoint:node:6909707223,5.323362599999999,-4.1057358,EPP Laurier 2,
StopPoint:node:6909707224,5.3254632,-4.1060202,Carrefour École,
StopPoint:node:6909707225,5.330989199999999,-4.1037831,Station Shell Niangon Nord,
StopPoint:node:6909707226,5.3338915,-4.1029765,SIB Maroc,
StopPoint:node:6909707227,5.3358783999999995,-4.1014047,Carrefour ANADOR,
StopPoint:node:6909707228,5.3404237,-4.1004632,Pharmacie Cite Maroc,
StopPoint:node:6909707229,5.3401182,-4.0892501,Arret CIE,
StopPoint:node:6909707230,5.3462518999999995,-4.0892687,Carrefour Niangon,
StopPoint:node:6909707232,5.3544963,-4.087503,Ancienne Mosquee PB2,
StopPoint:node:6909707233,5.3561103999999995,-4.0851103,Station Shell Carrefour Zone,
StopPoint:node:6909707234,5.360420899999999,-4.0850900999999995,Cite BAE,
StopPoint:node:6909707236,5.358950999999999,-4.0277736,Gare Nord,
StopPoint:node:6909707238,5.3147518,-4.0183735,Gare Sud,
StopPoint:node:6909737821,5.3058324,-4.0049374,Carrrefour St Jean Bosco,
StopPoint:node:6909737822,5.3056506,-4.0118621,Avenue 10 Rue 12,
StopPoint:node:6909737824,5.3067759,-4.0211597999999995,Grand Moulin,
StopPoint:node:6909737825,5.3033621,-4.021728599999999,SOEM Port,
StopPoint:node:6909737826,5.2950194,-4.0104199,Socimat,
StopPoint:node:6909737827,5.2878677,-4.0082981,Siege SOTRA,
StopPoint:node:6909737828,5.2820276999999995,-4.0083516,Unilever,
StopPoint:node:6909737830,5.2705271,-4.0061063,Pont de Vridi,
StopPoint:node:6909812228,5.3572641,-4.0849641,Terminus 77 Carrefour Zone,
StopPoint:node:6909812229,5.355256499999999,-4.0867444,Pharmacie Divine Grace PB2,
StopPoint:node:6909812230,5.3469666,-4.0880982999999995,Arret Koudouss,
StopPoint:node:6909812232,5.3400137999999995,-4.0974297,Mosquee du Maroc,
StopPoint:node:6909812233,5.3401836,-4.1004172,Pharmacie Cite Maroc,
StopPoint:node:6909812234,5.3358609999999995,-4.1013081,Carrefour ANADOR,
StopPoint:node:6909812235,5.330569199999999,-4.103799899999999,Station Shell Niangon Nord,
StopPoint:node:6909812237,5.32569,-4.1058531,Groupe Scolaire St Chalmel,
StopPoint:node:6909923471,5.3568101,-4.0739979,Sicomex Yopougon,
StopPoint:node:6909923472,5.3538004,-4.074004599999999,Ex Cinema Kabadougou,
StopPoint:node:6909923473,5.3451355,-4.0732384,Ex Cinema Dialogue,
StopPoint:node:6909923474,5.3388868,-4.0732871,16e Arrondissement,
StopPoint:node:6909923475,5.3326109,-4.0733247,Ex Cinema Saguidiba,
StopPoint:node:6909923477,5.3297734,-4.0735526,Gare Yopougon Koute,
StopPoint:node:6910224899,5.3463096,-3.9936456,Gare Campus,
StopPoint:node:6910224902,5.3297134,-4.0738578,Gare Yopougon Koute,
StopPoint:node:6910224905,5.3315586999999995,-4.0735190999999995,Ex Cinema Saguidiba,
StopPoint:node:6910224906,5.3344863,-4.0734252,CITELCOM,
StopPoint:node:6910224907,5.338833999999999,-4.0734096,16e Arrondissement,
StopPoint:node:6910224908,5.3418778,-4.0734078,Yopougon St Andre,
StopPoint:node:6910224909,5.345666,-4.0734037999999995,Ex Cinema Dialogue,
StopPoint:node:6910224910,5.354088099999999,-4.0741881,Ex Cinema Kabadougou,
StopPoint:node:6910224911,5.3566819,-4.074177199999999,Sicomex Yopougon,
StopPoint:node:6910272309,5.2678334,-4.0031259,Simat,
StopPoint:node:6910272310,5.2594549,-3.9978365,GESTOCI,
StopPoint:node:6910272312,5.257788199999999,-3.9854581999999996,CIE Vridi Cite,
StopPoint:node:6910272313,5.2582659,-3.9824273,SIB Vridi Cite,
StopPoint:node:6910272314,5.2600530999999995,-3.9820027999999996,SODECI Vridi Cite,
StopPoint:node:6910272315,5.2644760999999995,-3.9850263,Foyer Polyvalent,
StopPoint:node:6910272316,5.2666602,-3.9874196,Terminus 53 Vridi Cite,
StopPoint:node:6910518025,5.331322999999999,-4.0228168,Terminus Cite Administrative,
StopPoint:node:6910584802,5.426785199999999,-4.0201529,Abobo Gendarmerie,
StopPoint:node:6910703473,5.350955,-4.0632851,Institut des Aveugles,
StopPoint:node:6910703474,5.3476916,-4.0632757999999995,Bel Air,
StopPoint:node:6910703475,5.3418057,-4.0622364,Arret Complexe,
StopPoint:node:6910703476,5.3380456,-4.0622136,Pharmacie Nouveau Quartier,
StopPoint:node:6910703477,5.3333961,-4.0621975,Clinique les Oliviers,
StopPoint:node:6910743309,5.3292749,-4.0613523,Phalenes,
StopPoint:node:6910743310,5.333821299999999,-4.0623685,Clinique les Oliviers,
StopPoint:node:6910743311,5.3375141,-4.0623477,Pharmacie Nouveau Quartier,
StopPoint:node:6910743312,5.3460439,-4.0634635,Bel Air,
StopPoint:node:6910743313,5.355664399999999,-4.0660061999999995,3 Cafeiers,
StopPoint:node:6910743314,5.3513983,-4.063447399999999,Institut des Aveugles,
StopPoint:node:6910755171,5.3237979,-4.0804794,Carrefour Akadjoba,
StopPoint:node:6910755172,5.3255979,-4.0764964,Marche Koute,
StopPoint:node:6910755173,5.3255738,-4.0718266,Paroisse St Laurent,
StopPoint:node:6910755174,5.3205089999999995,-4.080251,Pharmacie St Martin,
StopPoint:node:6910755176,5.3242746,-4.0667291,Arret Camp Militaire,
StopPoint:node:6910755177,5.3236042,-4.0615042,Johanesbourg 1,
StopPoint:node:6910755178,5.3236336,-4.057731599999999,Johanesbourg,
StopPoint:node:6910755179,5.3221811,-4.0535122,Carrefour Koweit,
StopPoint:node:6910755180,5.3222274999999994,-4.0507693,Mosquee Koweit,
StopPoint:node:6910755181,5.322239499999999,-4.046458299999999,Cite Zadi Kessi,
StopPoint:node:6910755182,5.3198693,-4.043974599999999,Pharmacie Chenain,
StopPoint:node:6910755183,5.3171339,-4.0439826,Jerusalem,
StopPoint:node:6910794085,5.309550499999999,-4.0439558,Sante Village,
StopPoint:node:6910794088,5.3101983,-4.0353389,Gare Terrestre Abobodoume,
StopPoint:node:6910797792,5.4156089,-4.0054353,Cours Kennedy,
StopPoint:node:6910797793,5.4155902,-3.999584,Monastere,
StopPoint:node:6910797794,5.4038607,-3.9856156,1er Arret 81-82,
StopPoint:node:6910797795,5.4030812,-3.9792224999999997,Residence Nelson Mandela,
StopPoint:node:6910797796,5.4011881,-3.9780821,Pharmacie 8e Tranche,
StopPoint:node:6910797797,5.3980732,-3.9774813,NSIA Angre,
StopPoint:node:6910797798,5.395402799999999,-3.9767677999999997,Pharmacie les Arums,
StopPoint:node:6910797799,5.3932465999999994,-3.9761992,Eglise El Bethel,
StopPoint:node:6910797800,5.3946558,-3.971504,Ecole Michel Yakice,
StopPoint:node:6910797801,5.4000986,-3.9649834999999998,Cite Diaspora,
StopPoint:node:6910797802,5.4022708,-3.9624552,Pharmacie Analya,
StopPoint:node:6910797803,5.4021884,-3.9621804,Cite GESTOCI,
StopPoint:node:6910797804,5.399963,-3.9570893,Terminus CHU Angre,
StopPoint:node:6910797805,5.4154487,-4.0019175,Ivograin,
StopPoint:node:6910797806,5.3997812,-3.9570173,Terminus CHU Angre,
StopPoint:node:6910797807,5.400418999999999,-3.959247,Arret Espace Bessikoi,
StopPoint:node:6910797810,5.3958895,-3.9696251,Arret Programme 6,
StopPoint:node:6910797811,5.3941826,-3.9716562,Ecole Michel Yakice,
StopPoint:node:6910797812,5.3929542,-3.9754723,Fred et Poppee,
StopPoint:node:6910797813,5.395482299999999,-3.9769683,Pharmacie les Arums,
StopPoint:node:6910797814,5.3969496,-3.9773544999999997,Roi du Pain,
StopPoint:node:6910797815,5.399684,-3.9780331999999996,Station Total Angre,
StopPoint:node:6910797816,5.401688699999999,-3.9783543,Orca Angre,
StopPoint:node:6910797817,5.4029906,-3.9793152999999997,Residence Nelson Mandela,
StopPoint:node:6910797819,5.4070126,-3.9911934,Arret Jubile,
StopPoint:node:6910797820,5.4103992,-3.9941237,Arrêt,
StopPoint:node:6910797821,5.4135935,-3.9952984999999996,Carrefour Angre,
StopPoint:node:6912410270,5.3286967999999995,-4.0047695,Ambassade Allemagne,
StopPoint:node:6912410271,5.327880599999999,-4.0029870999999995,Hotel Ivoire,
StopPoint:node:6912410272,5.3277329,-4.0032565,Hotel Ivoire,
StopPoint:node:6912410273,5.3327048999999995,-4.0045047,Lycee Classique Cocody,
StopPoint:node:6912410274,5.3439798,-4.0037107999999995,SODEMI,
StopPoint:node:6912410275,5.3477963,-4.0095364,Pont Lycee Technique,
StopPoint:node:6912729876,5.3580305,-4.0012852,Eglise St Jacques,
StopPoint:node:6912729877,5.3601021,-3.9987263,Socitech,
StopPoint:node:6912729878,5.3648215,-3.9976005,Farandole,
StopPoint:node:6912729879,5.367350699999999,-3.9983362999999996,Station Mobile,
StopPoint:node:6912729880,5.371804699999999,-3.9984268,SOCOCE 2 Pltx,
StopPoint:node:6912729882,5.3753176,-3.9985727,Carrefour Gobelet,
StopPoint:node:6912729883,5.377498,-3.9977907999999998,Carrefour Duncan,
StopPoint:node:6912729884,5.3811757,-3.9940917,Las Palmas,
StopPoint:node:6912805207,5.3373257999999995,-4.0765581,EPP SICOGI 3,
StopPoint:node:6912805208,5.338401999999999,-4.0753033,Patisserie SICOGI,
StopPoint:node:6912805209,5.346736099999999,-4.0652151,Arret Cine Cool Rue princesse,
StopPoint:node:6912805210,5.3408074,-4.0599957,Nouveau Quartier FRCI,
StopPoint:node:6912805211,5.3404419,-4.0585186,Marche Nouveau Quartier,
StopPoint:node:6912805212,5.3373205,-4.0549944,Pharmacie Sacre Cœur,
StopPoint:node:6912805213,5.3337105,-4.0550185999999995,Poste Toit Rouge,
StopPoint:node:6912805219,5.3104606,-4.0354465,Gare Terrestre Abobodoume,
StopPoint:node:6912820385,5.3850099,-3.9932071999999996,CERAO,
StopPoint:node:6912820386,5.3888618,-3.9927227999999997,Residence les Perles,
StopPoint:node:6912820387,5.3930931,-3.9922220999999998,Residences Stars,
StopPoint:node:6912820388,5.3942099,-3.9920812,Glacier les Oscars,
StopPoint:node:6912820389,5.3965613,-3.9918028999999997,Residence les Papayers,
StopPoint:node:6912820390,5.4005941,-3.9913141999999997,City Dia,
StopPoint:node:6912820391,5.4038172,-3.9909124,Petro Ivoire Angre,
StopPoint:node:6912820392,5.4042033,-3.9882535,Ecole Primaire Notre Dame,
StopPoint:node:6912820393,5.4034713,-3.9819701999999997,FIDRA,
StopPoint:node:6912820394,5.4033371,-3.9764025999999997,Terminus Djibi,
StopPoint:node:6912820395,5.4006902,-3.9728353999999997,Soleil 2,
StopPoint:node:6912820396,5.3971938999999995,-3.9694727,Residence Madinah,
StopPoint:node:6912820397,5.3998662,-3.9648942999999996,Cite Diaspora,
StopPoint:node:6912820398,5.3972237,-3.9697282,Residence Madinah,
StopPoint:node:6912820399,5.4032105,-3.9763604999999997,Terminus Djibi,
StopPoint:node:6912820400,5.4031753,-3.9810393,Pharmacie Ste Harmonie,
StopPoint:node:6912820401,5.4037771999999995,-3.9856792999999997,Arret Al Diwan,
StopPoint:node:6912820402,5.4040814,-3.9883718999999997,Ecole Primaire Notre Dame,
StopPoint:node:6912820403,5.4036459,-3.9907109999999997,Petro Ivoire Angre,
StopPoint:node:6912820404,5.4002985,-3.9911375,Pharmacie Angre,
StopPoint:node:6912820405,5.3966439,-3.9915881,Residence les Papayers,
StopPoint:node:6912820406,5.3926283,-3.9920628999999996,Ambassade de Chine,
StopPoint:node:6912820407,5.3895653999999995,-3.9924668,Residence les Perles,
StopPoint:node:6912820408,5.3845481,-3.9930996,Opéra,
StopPoint:node:6912820409,5.3809502,-3.9940545999999997,Las Palmas,
StopPoint:node:6912820410,5.3779505,-3.9970643999999997,Carrefour Duncan,
StopPoint:node:6912820411,5.375347199999999,-3.9983567,Carrefour Gobelet,
StopPoint:node:6912820412,5.3725038,-3.9983277999999998,SOCOCE 2 Pltx,
StopPoint:node:6912820413,5.3677225,-3.9981432,Station Mobile,
StopPoint:node:6912820414,5.3654376,-3.9973647999999997,Farandole,
StopPoint:node:6912820415,5.3574699,-4.001239099999999,Eglise St Jacques,
StopPoint:node:6912820416,5.352554,-4.0018628,Hotel Palm Club,
StopPoint:node:6912820417,5.3493692,-4.0022742,Carrefour la Vie,
StopPoint:node:6912820418,5.3445059,-4.0027704,Carrefour RTI,
StopPoint:node:6913011676,5.326607399999999,-4.0255437999999995,SICF Plateau,
StopPoint:node:6913011677,5.3293875,-4.073499,Gare Yopougon Koute,
StopPoint:node:6913190444,5.308711199999999,-4.043768,Sante Village,
StopPoint:node:6913190445,5.3166799,-4.0440879,Jerusalem,
StopPoint:node:6913190446,5.3208014,-4.0441167,Pharmacie Chenain,
StopPoint:node:6913190447,5.3221153999999995,-4.0468310999999995,Cite Zadi Kessi,
StopPoint:node:6913190452,5.3337753,-4.0550937,Poste Toit Rouge,
StopPoint:node:6913190453,5.3369773,-4.055092999999999,Pharmacie Sacre Cœur,
StopPoint:node:6913190454,5.3401473,-4.058547,Marche Nouveau Quartier,
StopPoint:node:6913190455,5.340736199999999,-4.0608235,Nouveau Quartier FRCI,
StopPoint:node:6913190456,5.346616699999999,-4.0650474,Arret Cine Cool Rue princesse,
StopPoint:node:6913190457,5.3447353,-4.0678006,Mairie Selmer Yopougon,
StopPoint:node:6913190458,5.3395304,-4.0745628,Phamacie Wakouboue,
StopPoint:node:6913190459,5.337992799999999,-4.0751928,Patisserie SICOGI,
StopPoint:node:6913190460,5.3372573999999995,-4.0770330999999995,EPP SICOGI 3,
StopPoint:node:6913190461,5.3372711,-4.0806585,Terrain Sogefiha,
StopPoint:node:6913201898,5.3290163,-4.0757574,Carrefour Express,
StopPoint:node:6913201899,5.3243320999999995,-4.0799807999999995,Pharmacie Akadjoba,
StopPoint:node:6913201900,5.323919399999999,-4.0871835999999995,Paroisse Saint Pierre,
StopPoint:node:6913201901,5.3233739,-4.0925668,Carrefour SODECI,
StopPoint:node:6913201902,5.3197171,-4.0944323,Marche Niangon Sud,
StopPoint:node:6913201903,5.316370099999999,-4.0947904,EPP Niangon Sud,
StopPoint:node:6913201904,5.3152544,-4.0928404,Cite Sicogi,
StopPoint:node:6913201907,5.3160663999999995,-4.090050199999999,Shell Carrefour Azito,
StopPoint:node:6913201908,5.3152072,-4.0925927,Cite Sicogi,
StopPoint:node:6913201909,5.3172602,-4.0948509,EPP Niangon Sud,
StopPoint:node:6913201911,5.3233885,-4.0926667,Carrefour SODECI,
StopPoint:node:6913201912,5.3240967,-4.0869618999999995,Paroisse Saint Pierre,
StopPoint:node:6913201914,5.3289330999999995,-4.0761376,Cabine Bleue Palais,
StopPoint:node:6913201915,5.3146172,-4.018495199999999,Gare Sud,
StopPoint:node:6913291219,5.314498599999999,-4.0183564,Gare Sud,
StopPoint:node:6913703799,5.3350719,-3.9973538,Maison PDCI 1,
StopPoint:node:6913703800,5.308493599999999,-3.9997195,Piscine d’État de Treichville,
StopPoint:node:6913703802,5.308696599999999,-3.9837713999999997,Gare Marcory,
StopPoint:node:6913703803,5.335338,-3.9975172,Maison PDCI,
StopPoint:node:6913703804,5.331031299999999,-3.9969162,Eglise Methodiste,
StopPoint:node:6913857608,5.3557108,-4.0658826,3 Cafeiers,
StopPoint:node:6913857611,5.3407344,-4.0646331,Station Total Selmer,
StopPoint:node:6913929664,5.3443401,-4.0375561,Ecole de la Marine,
StopPoint:node:6913929665,5.3278599,-4.0262003,SICF Plateau,
StopPoint:node:6913929666,5.314627199999999,-4.0182404,Gare Sud,
StopPoint:node:6913929668,5.3445865,-4.0380731,Ecole de la Marine,
StopPoint:node:6913929669,5.3295615,-4.0737128,Gare Yopougon Koute,
StopPoint:node:6913931703,5.336708,-4.0216161999999995,Commandement Superieur,
StopPoint:node:6913974340,5.3369705,-4.0217222,Commandement Superieur,
StopPoint:node:6915341518,5.403498,-3.9834587,Cash Express Angre,
StopPoint:node:6915341520,5.4294972999999995,-3.9893348,GS Kiyala,
StopPoint:node:6915341521,5.4314084,-3.9890417,Hotel Felling,
StopPoint:node:6915341523,5.4564179,-3.9725804,Terminus Djibi Village,
StopPoint:node:6915341525,5.4564283,-3.9726481999999996,Terminus Djibi Village,
StopPoint:node:6915341526,5.445418399999999,-3.9782256,Ancien Terminus Biabou,
StopPoint:node:6915341527,5.442988,-3.9811295999999996,Chapelle St Jean Baptiste,
StopPoint:node:6915341529,5.440521599999999,-3.9845566,Quincaillerie,
StopPoint:node:6915341533,5.4341098,-3.9884746,Pharmacie Belleville,
StopPoint:node:6915341535,5.4316414,-3.9888828999999997,Hotel Felling,
StopPoint:node:6915341536,5.4292441,-3.9892608,GS Kiyala,
StopPoint:node:6915341537,5.4265004,-3.9896626,Arret Celeste,
StopPoint:node:6915341540,5.4195245,-3.9907375,34e Arrondissement,
StopPoint:node:6915341543,5.4155083,-3.9927818999999998,Abobo Baoule,
StopPoint:node:6915341545,5.4140019,-3.9952368999999996,Carrefour Angre,
StopPoint:node:6915341547,5.4050885,-3.990564,Bel Horizon,
StopPoint:node:6915341548,5.4035747999999995,-3.982893,Cash Express Angre,
StopPoint:node:6915487638,5.3585446,-3.96346,KM 9,
StopPoint:node:6915487641,5.3568703,-3.9665508,CAP NORD,
StopPoint:node:6915487642,5.3532642,-3.9779867999999996,Carrefour Riviera 2,
StopPoint:node:6915487643,5.350229199999999,-3.9881887,Ecole de Police,
StopPoint:node:6915487644,5.349223299999999,-3.9943092,Ecole de Gendarmerie,
StopPoint:node:6915487645,5.348552199999999,-4.0018322,Carrefour la Vie,
StopPoint:node:6915647682,5.4217637,-4.0185375,Mairie d'ABOBO,
StopPoint:node:6915647684,5.430821,-4.0245565,Mosquee Blanche,
StopPoint:node:6915696792,5.3587403,-3.9635319,Terminus 701 9Km,
StopPoint:node:6915696795,5.359604699999999,-3.9620357999999998,Supermarche SMD,
StopPoint:node:6915696796,5.3574857,-3.9657801999999998,Station Total riviera 3,
StopPoint:node:6915696797,5.3504609,-3.9881604999999998,Ecole de Police,
StopPoint:node:6915696799,5.3493834,-3.9944569999999997,Ecole de Gendarmerie,
StopPoint:node:6915696800,5.3485982,-4.002964899999999,Carrefour la Vie,
StopPoint:node:6915722685,5.4330947,-4.0264766,College IRIS 2,
StopPoint:node:6915722686,5.4390867,-4.0446561,Gare Routiere Anokoi,
StopPoint:node:6915722687,5.4434691,-4.048493,Terminus PK18 Agripac,
StopPoint:node:6915722688,5.4478763,-4.0510477,Ancien Terminus 76,
StopPoint:node:6915722689,5.4504423,-4.052933299999999,Ancien Marche PK18,
StopPoint:node:6915722690,5.4551026,-4.0546573,Carrefour Koffi Jean,
StopPoint:node:6915722691,5.4578747,-4.0545238,Arret Unicafe,
StopPoint:node:6915722692,5.4649111,-4.0544251,Arret Abossia,
StopPoint:node:6915722694,5.466787,-4.0537089,Carrefour Berthe,
StopPoint:node:6915722695,5.479914099999999,-4.0534983,Arret Colatier,
StopPoint:node:6915722697,5.48311,-4.051402599999999,Carrefour Cisse,
StopPoint:node:6915722698,5.485583999999999,-4.051470699999999,Carrefour Sylla,
StopPoint:node:6915722699,5.4891358,-4.0515888,Carrefour Perception,
StopPoint:node:6915722700,5.4903905,-4.0516436,Carrefour Chateau,
StopPoint:node:6915722704,5.4930853,-4.0516879999999995,Coco Service,
StopPoint:node:6915722705,5.4949295,-4.0518116,Arret CDCI,
StopPoint:node:6915722709,5.4980275,-4.0514334,Carrefour Maternite,
StopPoint:node:6915722713,5.5015028,-4.0522635,Atlantic Microfinance,
StopPoint:node:6915722714,5.5029781,-4.0526314,Coopec Anyama,
StopPoint:node:6915722715,5.5049677,-4.0530621,Carrefour Yapokoi,
StopPoint:node:6915722716,5.504721,-4.0531381,Carrefour Yapokoi,
StopPoint:node:6915722717,5.5064665999999995,-4.0531419,Terminus Mairie Anyama,
StopPoint:node:6915722719,5.5064131,-4.0530596,Terminus Mairie Anyama,
StopPoint:node:6915722720,5.4989229,-4.0513466,Carrefour Maternite,
StopPoint:node:6915722721,5.503285,-4.0525826,COOPEC Anyama,
StopPoint:node:6915722722,5.5018576,-4.0521787,Foyer d'Anyama,
StopPoint:node:6915722723,5.4932139,-4.0515592,Coco Service,
StopPoint:node:6915722724,5.4894263,-4.051458,Arret Poteau,
StopPoint:node:6915722725,5.4860014,-4.051343,Carrefour Sylla,
StopPoint:node:6915722726,5.4833399,-4.0512562999999995,Carrefour Cisse,
StopPoint:node:6915722727,5.4793129,-4.0538083,Impot Anyama,
StopPoint:node:6915722728,5.4753167,-4.054984,Carrefour Ecole,
StopPoint:node:6915722729,5.4698766,-4.052793299999999,Arret Kedjenou,
StopPoint:node:6915722730,5.466871299999999,-4.053408699999999,Carrefour Berthe,
StopPoint:node:6915722731,5.4612143,-4.0537691,Ancienne Gendarmerie,
StopPoint:node:6915722732,5.4554937,-4.0544097,Carrefour Koffi Jean,
StopPoint:node:6915722734,5.4506916,-4.0529082999999995,Ancien Marche PK18,
StopPoint:node:6915722735,5.4477782999999995,-4.0507076,Pharmacie Milie Hevie PK18,
StopPoint:node:6915722736,5.4439833,-4.0486071,Terminus PK18 Agripac,
StopPoint:node:6916152424,5.28758,-4.0057551,Terminus 58 Cite du Port,
StopPoint:node:6916152425,5.2890666,-4.0084018,Pharmacie Port de Peche,
StopPoint:node:6916152426,5.2961604,-4.0033572,Foire de Chine Outlet,
StopPoint:node:6916152427,5.2991474,-4.0024768,Centre Commercial Gare Bassam Treichville,
StopPoint:node:6916181080,5.3478959,-4.0026565,Cite Bad,
StopPoint:node:6916181081,5.3700062,-3.9983307999999997,Pharmacie les 2 Pltx,
StopPoint:node:6916280434,5.4149921,-3.9940398999999998,Abobo Baoule,
StopPoint:node:6916280435,5.4129627,-3.9948875,Pharmacie Actuelle,
StopPoint:node:6916280436,5.4103430999999995,-3.9939446999999997,Arrêt,
StopPoint:node:6916280438,5.407881199999999,-3.9917974999999997,Arret Jubile,
StopPoint:node:6916280439,5.4055233,-3.990494,Bel Horizon,
StopPoint:node:6916280440,5.4011787,-3.9910264,Citydia,
StopPoint:node:6916280441,5.3991454,-3.9912558999999996,Pharmacie Angre,
StopPoint:node:6916280442,5.3973362,-3.9915239999999996,SODECI Angre,
StopPoint:node:6916280443,5.3945042999999995,-3.9918310999999997,Glaciers les Oscars,
StopPoint:node:6916280444,5.387512699999999,-3.9927256,GM Cosmetic,
StopPoint:node:6916280445,5.379684699999999,-3.9953377999999997,One Tech Africa,
StopPoint:node:6916280446,5.3737207,-3.9983541999999996,NSIA BANK,
StopPoint:node:6916280447,5.3701723999999995,-3.9981283,Pharmacie les 2 Pltx,
StopPoint:node:6916280448,5.3465780999999994,-4.002571,Terminus Cite des Arts,
StopPoint:node:6916280449,5.3386878,-4.0035403,CIE Cocody St-Jean,
StopPoint:node:6917146061,5.3065218,-3.9865047,Carrefour Konankro,
StopPoint:node:6917146062,5.3061086,-3.9857063,Commissariat du 9 ème,
StopPoint:node:6917146063,5.303685,-3.9812738999999997,Quartier Mokey,
StopPoint:node:6917146064,5.301861499999999,-3.9780043,Antenne Sicogi,
StopPoint:node:6917146065,5.300726699999999,-3.9759881,Marche Marcory,
StopPoint:node:6917146066,5.2987367,-3.9724119,Eglise Ste Bernadette,
StopPoint:node:6917146068,5.2966549,-3.9684288999999997,Texaco Remblais,
StopPoint:node:6917146069,5.2965895,-3.9650103,Kmsi Port-Bouet 2,
StopPoint:node:6917146070,5.2975502,-3.9609495,St François d'Assise,
StopPoint:node:6917146071,5.298384899999999,-3.9571514,Inch Allach,
StopPoint:node:6917146072,5.2993551,-3.9527656999999996,Pharmacie Prodomo,
StopPoint:node:6917146073,5.3000868,-3.9496586999999996,Terminus Mesano,
StopPoint:node:6917146075,5.3002500999999995,-3.948512,Lycee Ste Therese Mesano,
StopPoint:node:6917146076,5.2998481,-3.9502971,Station Petro Ivoire,
StopPoint:node:6917146077,5.2984715,-3.9563161,Inch Allach,
StopPoint:node:6917146078,5.2979614999999995,-3.9585966,Baradji,
StopPoint:node:6917146079,5.2972342999999995,-3.9618447,St François d'Assise,
StopPoint:node:6917146080,5.2962694,-3.9659738,Koumassi Port-Bouet 2,
StopPoint:node:6917146081,5.2963194,-3.9679613,Texaco Remblais,
StopPoint:node:6917146082,5.2980439,-3.9712812,Pharmacie Bagoe,
StopPoint:node:6917146083,5.300319099999999,-3.9754861,Marche Marcory,
StopPoint:node:6917146084,5.3020306999999995,-3.9785359,Antenne Sicogi,
StopPoint:node:6917151685,5.3043401999999995,-3.9826647,CityDia,
StopPoint:node:6917151686,5.306216099999999,-3.9860886,Carrefour Konankro,
StopPoint:node:6917151687,5.3077309,-3.9888489999999996,Arret Lamartine,
StopPoint:node:6917151688,5.3084636,-3.9904412999999996,Eglise protestante bapte,
StopPoint:node:6919194336,5.3106101,-4.0352896,Gare Terrestre Abobodoume,
StopPoint:node:6919312942,5.3270854,-4.0923844,Texaco,
StopPoint:node:6919312945,5.3315793,-4.1099879,Cite Verte,
StopPoint:node:6919312946,5.3306787,-4.1058974,Paroisse St Matthieu,
StopPoint:node:6919312947,5.3296893,-4.1035223,BNI Lubafrique,
StopPoint:node:6919312948,5.328424099999999,-4.1005389999999995,Ancien Terminus 044,
StopPoint:node:6919312949,5.3278004999999995,-4.097620099999999,Paroisse Sainte Rita,
StopPoint:node:6919312950,5.324154699999999,-4.0812954,Laurent Mandjo,
StopPoint:node:6919312951,5.3103655,-4.0351267,Gare Terrestre Abobodoume,
StopPoint:node:6919327587,5.322126,-4.053652,Carrefour Koweit,
StopPoint:node:6919327588,5.3235388,-4.0573213,Johanesbourg,
StopPoint:node:6919327589,5.324122399999999,-4.0669544,Carrefour Petit Toit Rouge,
StopPoint:node:6919327590,5.3251706,-4.0710314,Marche Koute,
StopPoint:node:6919327591,5.325455,-4.0761933,Palais de Justice Yopougon,
StopPoint:node:6919327594,5.3264404999999995,-4.0914322,Texaco,
StopPoint:node:6919327595,5.327729,-4.0976496,Paroisse Sainte Rita,
StopPoint:node:6919327596,5.328356599999999,-4.1005785999999995,Ancien Terminus 044,
StopPoint:node:6919327597,5.3295851,-4.1035169,BNI Lubafrique,
StopPoint:node:6919327598,5.3307695,-4.1063239,Paroisse St Matthieu,
StopPoint:node:6919758025,5.2989802,-3.9843455,Orca,
StopPoint:node:6919758026,5.296130799999999,-3.9792079,Pharmacie Tiacoh,
StopPoint:node:6919758027,5.2944182,-3.9761132999999997,Clinique la Madone,
StopPoint:node:6919758028,5.2930364,-3.9735609999999997,Shell Blvd Gabon,
StopPoint:node:6919758029,5.2927669,-3.9712223,Pharmacie du Gabon,
StopPoint:node:6919758030,5.2932236,-3.9690282999999997,Pharmacie Soleil,
StopPoint:node:6919758031,5.2940572,-3.965356,Pharmacie Iroko,
StopPoint:node:6919758032,5.2951939999999995,-3.960378,Pharmacie St François,
StopPoint:node:6919758033,5.2961331,-3.9565104,UTB Koumassi,
StopPoint:node:6919758034,5.297599,-3.9526269,1ere Entree Sogefia,
StopPoint:node:6919758035,5.298748499999999,-3.9476714999999998,Garage Akwaba,
StopPoint:node:6919758036,5.3015611,-3.9469718,Cours la Source,
StopPoint:node:6919758038,5.3077511,-3.9466929,College Bon Samaritain,
StopPoint:node:6919758039,5.3099048,-3.9473289,Pharmacie Fanny,
StopPoint:node:6919758041,5.3109373,-3.9448619,Terminus Koumassi Nord-Est,
StopPoint:node:6924851825,5.3025652999999995,-4.0107674,Avenue 18 Rue 12,
StopPoint:node:6924851826,5.303978,-4.0112496,Avenue 14 Rue 12,
StopPoint:node:6924851828,5.3028704,-4.0006756999999995,Terminus Entente,
StopPoint:node:6924851829,5.3015791,-4.0016802,Cite Arras 3,
StopPoint:node:6924851830,5.300882,-4.0035549999999995,Agence Bicici Arras,
StopPoint:node:6924851831,5.299959299999999,-4.0062869,Ancien Terminus 67,
StopPoint:node:6924851833,5.3586294,-4.0277536,Gare Nord,
StopPoint:node:6924979791,5.3027355,-4.0107085,Avenue 19 Rue 12,
StopPoint:node:6924979792,5.3027609,-4.0069681,Avenue 21 Rue 21,
StopPoint:node:6924979794,5.3032777,-4.0008245,Terminus Entente,
StopPoint:node:6926746685,5.3296325,-4.0210853,Police Judiciaire Plateau,
StopPoint:node:6926746686,5.330987599999999,-4.0236032,Terminus Cite Administrative,
StopPoint:node:6926746688,5.3149603,-4.018979,Gare Sud,
StopPoint:node:6926746689,5.3018268,-4.0095705,Restaurant Marakech,
StopPoint:node:6926746750,5.4390503,-3.9860686,Cimetiere Abobo Baoule,
StopPoint:node:6926746751,5.4227969,-3.9902366,Hopital Abobo Baoule,
StopPoint:node:6926746752,5.415454899999999,-3.9996625999999997,Monastere,
StopPoint:node:6926746754,5.415513799999999,-4.0053773999999995,Cours Kennedy,
StopPoint:node:6926746755,5.415269599999999,-4.0071858,Carrefour Samake,
StopPoint:node:6926746757,5.3590439,-4.0280449,Gare Nord,
StopPoint:node:6926746758,5.4155923,-4.0022743,Ivograin,
StopPoint:node:6926746759,5.4156219,-3.9929392,Abobo Baoule,
StopPoint:node:6926746760,5.419660299999999,-3.9908192999999996,34e Arrondissement,
StopPoint:node:6926746761,5.4221392,-3.9904575999999996,Hopital Abobo Baoule,
StopPoint:node:6926746762,5.4258855,-3.9898404,Arret Celeste,
StopPoint:node:6926746763,5.43368,-3.9886815999999996,Pharmacie Belleville,
StopPoint:node:6926746765,5.4407966,-3.9844475999999998,Quincaillerie,
StopPoint:node:6926746766,5.4428496,-3.9815829999999997,Chapelle St Jean Baptiste,
StopPoint:node:6926746767,5.4453819,-3.9784121,Ancien Terminus Biabou,
StopPoint:node:6926943107,5.3079239,-3.9465912999999997,College Bon Samaritain,
StopPoint:node:6926943108,5.3054068,-3.9451848,Residence Agouti,
StopPoint:node:6926943109,5.3012653,-3.9835429999999996,PMI Marcory,
StopPoint:node:6926943110,5.3034579,-4.004664099999999,Pharmacie Notre-Dame,
StopPoint:node:6926943111,5.3146776,-4.018563299999999,Gare Sud,
StopPoint:node:6926943112,5.3311928,-4.0236086,Terminus Cite Administrative,
StopPoint:node:6927037611,5.4159386,-3.9930649,Terminus Abobo Baoule,
StopPoint:node:6927037612,5.4082563,-4.0063512,Arrêt,
StopPoint:node:6927037613,5.4057129,-4.0063848,Pharmacie Dokui,
StopPoint:node:6927037614,5.401427099999999,-4.0064344,SGBCI Dokui,
StopPoint:node:6927037615,5.393037,-4.005808099999999,College Larousse,
StopPoint:node:6927037616,5.3874906,-4.0056337,Carrefour Bandji,
StopPoint:node:6927037617,5.3801858,-4.0066168,Carrefour Zoo,
StopPoint:node:6927037618,5.3629280999999995,-4.0167207,Carrefour Williamsville,
StopPoint:node:6927037619,5.3487595,-4.0169974999999996,Edipresse,
StopPoint:node:6927037621,5.3411247,-4.0237561,Mission Libanaise Adjame,
StopPoint:node:6927037622,5.337275099999999,-4.0237963,Cite Policiere Plateau,
StopPoint:node:6927037623,5.3339228,-4.0238091,Tour Administrative,
StopPoint:node:6927037625,5.331013899999999,-4.0238251,Terminus Cite Administrative,
StopPoint:node:6927037626,5.3339514999999995,-4.0238860999999995,Tour Administrative,
StopPoint:node:6927037627,5.3377117,-4.0238741,Cite Policiere Plateau,
StopPoint:node:6927037631,5.401851,-4.006545,SGBCI Dokui,
StopPoint:node:6927037633,5.4158855,-3.9933256999999998,Terminus Abobo Baoule,
StopPoint:node:6927327302,5.3434193,-4.0125125,Ivoire Aviation,
StopPoint:node:6927327303,5.3462875,-4.0103211,Clinique Providence,
StopPoint:node:6927327304,5.3494085,-4.0088409,Lycee Technique,
StopPoint:node:6927327305,5.3529759,-4.0044479,198 Lgts,
StopPoint:node:6927327307,5.4048340999999995,-3.9851533,Terminus 81-82 Angre,
StopPoint:node:6927327308,5.4082837999999995,-3.9867901,Pharmacie des Allees 1,
StopPoint:node:6927327309,5.4072543,-3.9890537999999998,Cite Angre Star 2,
StopPoint:node:6927327310,5.3528041,-4.0043218,198 Lgts,
StopPoint:node:6927327311,5.3493597,-4.0085859,Lycee Technique,
StopPoint:node:6927327312,5.3461658,-4.0102683,Clinique Providence,
StopPoint:node:6927327313,5.3433535999999995,-4.0124663,Ivoire Aviation,
StopPoint:node:6927327314,5.3147983,-4.0186967,Gare Sud,
StopPoint:node:6927330411,5.3028043,-3.9460648999999997,Cours la Source,
StopPoint:node:6927330412,5.3120389,-3.9450814999999997,Terminus 56 Koumassi Nord-Est,
StopPoint:node:6927330413,5.3099837999999995,-3.9472560999999997,Pharmacie Fanny,
StopPoint:node:6927330414,5.3362229,-4.0047298,Carrefour Lycee Classique,
StopPoint:node:6927330416,5.3462362,-3.9938502999999996,Gare Campus,
StopPoint:node:6927544633,5.3463522999999995,-3.9972168999999997,Ecobank Cite des Arts,
StopPoint:node:6927544636,5.3358129,-4.0029552,Eglise St-Jean,
StopPoint:node:6927600976,5.3536864,-4.0175371,Station Corlay Renault,
StopPoint:node:6927600977,5.356730499999999,-4.0250561,Mirador Adjame,
StopPoint:node:6927694921,5.3592889999999995,-4.0275576,Gare Nord,
StopPoint:node:6928179123,5.3534453,-3.9700449,Terminus Riviera Africaine,
StopPoint:node:6928179124,5.3533843,-3.9736249999999997,EPP Sogefia Riviera 2,
StopPoint:node:6928179125,5.3525924,-3.9780694,Station Total Riviera 2,
StopPoint:node:6928179126,5.3512737,-3.9805623,Petite Mosquee Riviera 2,
StopPoint:node:6928250859,5.3518576,-3.9800267,Petite Mosquee Riviera 2,
StopPoint:node:6928250860,5.352621399999999,-3.9782778999999997,Station Total Riviera 2,
StopPoint:node:6928250861,5.3530707,-3.9761267,Cite Universitaire Riviera 2,
StopPoint:node:6928250862,5.353485699999999,-3.9702004,Terminus Riviera Africaine,
StopPoint:node:6928681599,5.2563753,-3.9975737,Terminus Vridi Iran,
StopPoint:node:6928681601,5.2947326,-4.0101948,Socimat,
StopPoint:node:6928681602,5.358880399999999,-4.0279685,Gare Nord,
StopPoint:node:6928704112,5.3050253,-4.0228909999999996,Direction Generale du Port,
StopPoint:node:6928704113,5.3002851,-4.0170398,Sovinci Port,
StopPoint:node:6928704114,5.2977799999999995,-4.0140854,Etablissement Rey Port,
StopPoint:node:6928704115,5.2636281,-3.9986156999999998,CPMA,
StopPoint:node:6928704117,5.2562023,-3.9975254,Terminus Vridi Iran,
StopPoint:node:6929796960,5.3143818,-4.0182207,Gare Sud,
StopPoint:node:6929849943,5.3149619999999995,-4.0189046,Gare Sud,
StopPoint:node:6930917942,5.361201599999999,-3.8943455,Lycee Jeune Fille de Bingerville,
StopPoint:node:6930917944,5.3640577,-3.9537302999999997,Station Total Route de Bingerville,
StopPoint:node:6930917946,5.3673945,-3.94563,Nouveau Camp Akouedo,
StopPoint:node:6930917947,5.370105,-3.9389928999999997,Carrefour Faya,
StopPoint:node:6930917948,5.3712573,-3.9347483,Résidence Genie 2000,
StopPoint:node:6930917949,5.3725084,-3.9301188,Carrefour Nouveau Goudron,
StopPoint:node:6930917950,5.3741413,-3.9237471999999998,Jules Verne,
StopPoint:node:6930917951,5.3718715,-3.9108525,Pharmacie St Silvestre,
StopPoint:node:6930917952,5.3633047,-3.907886,Hotel Free world Bingerville,
StopPoint:node:6930917953,5.3606115,-3.9031767,Universite Pole Scientifique,
StopPoint:node:6930917954,5.360275,-3.8979524,Carrefour CIE Bingerville,
StopPoint:node:6930917956,5.3577634,-3.8909746999999997,Lycée Garçon Bingerville,
StopPoint:node:6930917959,5.3606739999999995,-3.8841063,Terminus Hopital Mere-Enfant,
StopPoint:node:6930917962,5.3576746,-3.8908299,Lycée Garçon de Bingerville,
StopPoint:node:6930917963,5.3601095,-3.8979684999999997,Carrefour CIE Bingerville,
StopPoint:node:6930917964,5.360215,-3.9020951,Universite Pole Scientifique,
StopPoint:node:6930917967,5.371488299999999,-3.9108391,Pharmacie St Silvestre,
StopPoint:node:6930917968,5.3740098,-3.9233838,Jules Verne,
StopPoint:node:6930917969,5.371637799999999,-3.9324215,Hypermarche Carrefour,
StopPoint:node:6930917970,5.3701704,-3.9379910999999996,Carrefour Faya,
StopPoint:node:6930917971,5.3671088,-3.9456984,Nouveau Camp Akouedo,
StopPoint:node:6930917972,5.364088199999999,-3.9528453999999997,Station Total Route de Bingerville,
StopPoint:node:6930917973,5.3617224,-3.9579964,Arret Apres Barrage,
StopPoint:node:6931151021,5.2993777,-3.94723,Garage Akwaba,
StopPoint:node:6931151022,5.2975522999999995,-3.9523797999999997,1ere Entree Sogefia,
StopPoint:node:6931151023,5.2958991,-3.9571427999999997,UTB Koumassi,
StopPoint:node:6931151024,5.2952895,-3.9596351999999997,Pharmacie St François,
StopPoint:node:6931151025,5.294148,-3.9646378999999996,Pharmacie Iroko,
StopPoint:node:6931151026,5.293019,-3.9695373999999997,Pharmacie Soleil,
StopPoint:node:6931151027,5.2925417999999995,-3.9716829999999996,Pharmacie du Gabon,
StopPoint:node:6931151028,5.294069599999999,-3.9757097,Clinique la Madone,
StopPoint:node:6931151029,5.2965781,-3.9801775999999998,Pharmacie Tiacoh,
StopPoint:node:6931151030,5.2987848,-3.9842209,Orca,
StopPoint:node:6931151031,5.3590066,-4.027668,Gare Nord,
StopPoint:node:6931273195,5.2873212,-3.9540428,Koumassi Sicogi - Dépôt SOTRA,
StopPoint:node:6931273196,5.2849829,-3.964256,Eglise Ste Trinite,
StopPoint:node:6931273197,5.287394,-3.965076,Pharmacie St Auguste,
StopPoint:node:6931273198,5.2873493,-3.9684516,Hopital General de Koumassi,
StopPoint:node:6931273200,5.293022199999999,-3.9762277,SICOMEX Marcory,
StopPoint:node:6931273203,5.3148159,-4.0184375,Gare Sud,
StopPoint:node:6931792543,5.3074333,-4.0117627,Rond Point Treichville,
StopPoint:node:6931792544,5.309055799999999,-4.0071049,Ex Seny Fofana,
StopPoint:node:6931792545,5.2889971,-3.9672807999999997,Centre Commercial Koumassi,
StopPoint:node:6931792546,5.2840148,-3.9617206,Station Shell,
StopPoint:node:6931792547,5.2847439,-3.9586400999999998,Station Vinko,
StopPoint:node:6931792548,5.2857761,-3.9543310999999997,Pharmacie St Lucien,
StopPoint:node:6931792550,5.288452299999999,-3.9538697999999997,Terminus 25 Koumassi Sicogi,
StopPoint:node:6931985671,5.2870313,-3.9704987,Grd Carrefour Koumassi,
StopPoint:node:6931985672,5.2986569999999995,-4.0010775,Terminus Ivosep,
StopPoint:node:6932152400,5.326668799999999,-4.0600764,Pharmacie Chigatha,
StopPoint:node:6932152402,5.3250076,-4.0598402,Terminus Ecole Gandhi,
StopPoint:node:6932152404,5.325340799999999,-4.0599193,Terminus Ecole Gandhi,
StopPoint:node:6932152407,5.314852999999999,-4.0182858,Gare Sud,
StopPoint:node:6932239011,5.3290966,-3.9518974,Arret DC10,
StopPoint:node:6932239013,5.344365499999999,-3.9526011,Carrefour Mel,
StopPoint:node:6932239014,5.348653,-3.9535042999999996,Pharmacie Riviera 3,
StopPoint:node:6932239015,5.3509724,-3.9545014999999997,College Ardoise,
StopPoint:node:6932239016,5.3550168,-3.9606719,Station Corlay,
StopPoint:node:6932239017,5.3569208999999995,-3.9637336,Maquis Km9,
StopPoint:node:6932239019,5.3149333,-4.0185761,Gare Sud,
StopPoint:node:6932253478,5.4127958,-3.980879,Terminus Angre Chateau,
StopPoint:node:6932253479,5.4102418,-3.9845843999999997,Batim CI,
StopPoint:node:6932253480,5.386609399999999,-3.9930569,BIAO les Perles,
StopPoint:node:6932253481,5.4088864999999995,-3.9867549999999996,Pharmacie des Allees,
StopPoint:node:6932253483,5.4128465,-3.9809272,Terminus Angre Chateau,
StopPoint:node:6932323632,5.3569409,-3.9635029,Maquis Km9,
StopPoint:node:6932323633,5.3517214,-3.9543646999999997,College Ardoise,
StopPoint:node:6932323634,5.3485048,-3.9531872,Pharmacie Riviera 3,
StopPoint:node:6932323635,5.3446492999999995,-3.9524928999999998,Carrefour Mel,
StopPoint:node:6932323636,5.3284357,-3.9452743,Ecole Libanaise,
StopPoint:node:6933043352,5.322260399999999,-4.0623433,Terminus 37 Camp Militaire,
StopPoint:node:6933043354,5.3246012,-4.0599134999999995,Terminus Ecole Gandhi,
StopPoint:node:6933043356,5.330068499999999,-4.0581514,Arret BAE,
StopPoint:node:6933043357,5.3314563,-4.0559341,Pharmacie Toit Rouge,
StopPoint:node:6933043359,5.314559099999999,-4.018425,Gare Sud,
StopPoint:node:6933080251,5.3283382999999995,-3.9448733999999996,Ecole Libanaise,
StopPoint:node:6933080253,5.3283423999999995,-3.9475616,Cite Filao,
StopPoint:node:6933080256,5.329492999999999,-3.9804209999999998,Rond point du 3e Pont,
StopPoint:node:6933080257,5.3353722999999995,-3.9996752,PMI Cocody 1,
StopPoint:node:6933080258,5.3284154,-3.9401878,Mosquée Cité Eden,
StopPoint:node:6933080263,5.3391939,-3.9789296999999997,Mosquee du Golf 2,
StopPoint:node:6933080264,5.3326803,-3.9810966999999997,Carrefour Policier,
StopPoint:node:6933128807,5.3312516,-4.0560298,Pharmacie Toit Rouge,
StopPoint:node:6933128808,5.3299734999999995,-4.0578547,Arret BAE,
StopPoint:node:6933128810,5.3222613999999995,-4.0624208,Terminus 37 Camp Militaire,
StopPoint:node:6933231056,5.3018168,-4.009361999999999,Restaurant Marakech,
StopPoint:node:6933231057,5.302719499999999,-4.0067388,Avenue 21 Rue 21,
StopPoint:node:6933291484,5.3589712,-4.0272913,Gare Nord,
StopPoint:node:6933302185,5.3591995,-4.0277538999999996,Gare Nord,
StopPoint:node:6934648710,5.4266331999999995,-4.0210558,Maquis Chocolate,
StopPoint:node:6934648711,5.4437964999999995,-4.0532188,Taxi Gare,
StopPoint:node:6934648712,5.443623,-4.0596654999999995,Carrefour Celeste,
StopPoint:node:6934648714,5.443388,-4.0675472,Maquis Prelat,
StopPoint:node:6934648715,5.442806,-4.0693985,Carrefour Ndotre,
StopPoint:node:6934648716,5.4392746999999995,-4.0686146999999995,Pharmacie Olympic,
StopPoint:node:6934648717,5.4321434,-4.068663,Sotrapim,
StopPoint:node:6934648718,5.428223,-4.0699659,Carrefour Bangui,
StopPoint:node:6934648719,5.413004,-4.0783779,Phaiblaiss,
StopPoint:node:6934648721,5.4009224,-4.084276099999999,Carrefour Cite Ado,
StopPoint:node:6934648722,5.393576299999999,-4.0810159,Ancien Barrage,
StopPoint:node:6934648723,5.3892384,-4.078453,MACA,
StopPoint:node:6934648724,5.3836466,-4.0757427,SODEFOR,
StopPoint:node:6934648725,5.3747704,-4.0773950999999995,Arret 1er Carrefour 2,
StopPoint:node:6934648728,5.3838941,-4.0759718,SODEFOR,
StopPoint:node:6934648729,5.389031999999999,-4.0784458,MACA,
StopPoint:node:6934648730,5.3928929,-4.0806236,Ancien Barrage,
StopPoint:node:6934648731,5.4014804,-4.0842976,Carrefour Cite Ado,
StopPoint:node:6934648732,5.4130749,-4.0784144,Phaiblaiss,
StopPoint:node:6934648733,5.4279813,-4.070195,Carrefour Bangui,
StopPoint:node:6934648734,5.4326393,-4.0686617,Sotrapim,
StopPoint:node:6934648735,5.442790899999999,-4.069497999999999,Carrefour Ndotre,
StopPoint:node:6934648737,5.4437194,-4.0603223999999996,Carrefour Celeste,
StopPoint:node:6934648738,5.4439163,-4.0529418,Taxi Gare,
StopPoint:node:6934648740,5.4392616,-4.0441189,Gare Routiere Anokoi,
StopPoint:node:6934657651,5.2690497,-3.9618933,Carrefour Akwaba,
StopPoint:node:6934657652,5.2629136999999995,-3.9633662,Hopital General,
StopPoint:node:6934657653,5.2574343,-3.9637683999999997,Marche Port-Bouet,
StopPoint:node:6934657654,5.256613,-3.9615837999999997,Carrefour Ocean,
StopPoint:node:6934657656,5.2530566,-3.9607128,Wharf Port-Bouet,
StopPoint:node:6934657657,5.2510654,-3.9560196,Terminus Port-Bouet Phare,
StopPoint:node:6934798183,5.3970484999999995,-4.0026866,Centre Commercial du Dokui,
StopPoint:node:6934798184,5.3997114,-4.001413299999999,Sainte Monique,
StopPoint:node:6934815685,5.3994162999999995,-3.9960703,Superette Akwaba,
StopPoint:node:6934815687,5.3992227,-3.9959844999999996,Superette Akwaba,
StopPoint:node:6934815688,5.3994417,-3.9972692999999997,Pharmacie Sainte Monique,
StopPoint:node:6934815689,5.3997942,-4.0008152,Station Petro Ivoire,
StopPoint:node:6934815690,5.3994656999999995,-4.0013301,Sainte Monique,
StopPoint:node:6934815692,5.3970104,-4.0026122,Centre Commercial du Dokui,
StopPoint:node:6934872150,5.3221427,-4.0507592,Terminus Mosquee Koweit,
StopPoint:node:6934872151,5.323656,-4.0802954,EPP Espoir des Mamans,
StopPoint:node:6934922723,5.4604852,-4.0109693,Terminus Akeikoi,
StopPoint:node:6934922724,5.4553661,-4.0111229,College Destin,
StopPoint:node:6934922725,5.453104499999999,-4.0126678,Andre Bar,
StopPoint:node:6934922726,5.4493303,-4.0136652999999995,Carrefour Bangui,
StopPoint:node:6934922727,5.4446711,-4.0143523,Pharmacie Route Akeikoi,
StopPoint:node:6934922728,5.4400397,-4.0141819,Carrefour Chibrou,
StopPoint:node:6934922731,5.4327407999999995,-4.013846,15e Arrondissement Abobo,
StopPoint:node:6934922732,5.433625999999999,-4.0124144,Pharmacie Sogefia,
StopPoint:node:6934922733,5.4393221,-4.0143033,Carrefour Chibrou,
StopPoint:node:6934922734,5.444556899999999,-4.014485,Pharmacie Route Akeikoi,
StopPoint:node:6934922735,5.4492316,-4.0137649,Carrefour Bangui,
StopPoint:node:6934922736,5.4526933,-4.0130487,Andre Bar,
StopPoint:node:6934922737,5.4554447999999995,-4.0112489,College Destin,
StopPoint:node:6934922738,5.4604067999999994,-4.0110518,Terminus Akeikoi,
StopPoint:node:6934970640,5.3102833,-4.0352396,Gare Terrestre Abobodoume,
StopPoint:node:6935113685,5.4306955,-4.0240807,Pharmacie Tehoua,
StopPoint:node:6935113687,5.3314331,-4.023609899999999,Terminus Cite Administrative,
StopPoint:node:6935117220,5.3591731,-4.0273828,Gare Nord,
StopPoint:node:6935117222,5.3610508,-3.9897308999999996,Station Total 2Pltx,
StopPoint:node:6935117223,5.3653222,-3.9897536999999996,Cash Ivoire 2Pltx,
StopPoint:node:6935117224,5.3686628999999995,-3.9898949999999997,Nuit Saigon,
StopPoint:node:6935117225,5.372732,-3.9904759,Carrefour Residence Bada,
StopPoint:node:6935117227,5.377053399999999,-3.9926611999999997,Pharmacie Ste Cecile,
StopPoint:node:6935251104,5.3771843,-3.9926424999999997,Pharmacie Ste Cecile,
StopPoint:node:6935251105,5.3742722,-3.9904471,Patisserie SOCOCE,
StopPoint:node:6935251106,5.3686001999999995,-3.9897872999999997,Nuit Saigon,
StopPoint:node:6935251107,5.3649629999999995,-3.9897014,Cash Ivoire 2Pltx,
StopPoint:node:6935251108,5.3606736,-3.9896753,Station Total 2Pltx,
StopPoint:node:6935251109,5.357619199999999,-3.9907542,SGBCI Vallon,
StopPoint:node:6935251110,5.3522302,-3.9912866,Cite des Cadres,
StopPoint:node:6935251111,5.3387478999999995,-3.99993,Cite Air Afrique,
StopPoint:node:6935251112,5.3591486,-4.027848,Gare Nord,
StopPoint:node:6935274791,5.2624055,-3.9826873999999997,Pharmacie Vridi SIR,
StopPoint:node:6935274792,5.2569108,-3.9774759,EPP Petit Bassam,
StopPoint:node:6935274793,5.257467,-3.9699624,EPP Selmer,
StopPoint:node:6935274794,5.2585828,-3.965703,Mairie Port-Bouet,
StopPoint:node:6935274796,5.256815899999999,-3.9608596,Parmacie Ocean,
StopPoint:node:6935274797,5.256199,-3.9581760999999998,Lycee Moderne de Port-Bouet,
StopPoint:node:6935274799,5.2758153,-3.9661885999999997,Digue Koumassi,
StopPoint:node:6935274800,5.2813773,-3.9692268,CIE BIA SUD,
StopPoint:node:6935274801,5.2900094,-3.962945,EPP BAD,
StopPoint:node:6935274802,5.2907532,-3.9596587,Eglise Dehima,
StopPoint:node:6935274803,5.294112999999999,-3.9554939,Cimetiere Koumassi,
StopPoint:node:6935274804,5.2982382999999995,-3.9497782999999997,Pharmacie Regina,
StopPoint:node:6935274805,5.298214799999999,-3.9495457,Pharmacie Regina,
StopPoint:node:6935274806,5.2909815,-3.9582726,EX College Ajavon,
StopPoint:node:6935274807,5.2902818,-3.9612938,EPP BAD,
StopPoint:node:6935274808,5.2889304,-3.9668677999999997,Centre Commercial Koumassi,
StopPoint:node:6935274809,5.2768282,-3.9667035,Digue Koumassi,
StopPoint:node:6935274810,5.2576732999999995,-3.9577991999999997,43e BIMA,
StopPoint:node:6935274811,5.256056699999999,-3.9579253,Lycee Moderne de Port-Bouet,
StopPoint:node:6935274812,5.2574841,-3.9642421,Marche Port-Bouet,
StopPoint:node:6935274813,5.2584835,-3.9657568999999997,Mairie Port-Bouet,
StopPoint:node:6935274814,5.2576319,-3.9693877,EPP Selmer,
StopPoint:node:6935401280,5.4086889,-4.0063385,Carrefour Mauritanien,
StopPoint:node:6935401281,5.4109492999999995,-4.0062828,Carrefour Abobote,
StopPoint:node:6935401282,5.414173,-4.006252,ANADER Abobo,
StopPoint:node:6935401284,5.41892,-4.0140559,Cine Cool,
StopPoint:node:6935488165,5.2983706,-4.0041834,Palais des Sports Treichville,
StopPoint:node:6935488166,5.2470403,-3.9445075,33e Arrondissement,
StopPoint:node:6935488167,5.2446806,-3.9295541999999997,Dernier Arret Adjoufou,
StopPoint:node:6935488168,5.2440381,-3.925598,Avant dernier Arret Adjoufou,
StopPoint:node:6935488169,5.2434544999999995,-3.9220439999999996,Pharmacie des Plages,
StopPoint:node:6935488170,5.2426599,-3.9170243,Pharmacie Sante pour Tous,
StopPoint:node:6935488171,5.2417850999999995,-3.9115848,Arret Mosquee,
StopPoint:node:6935488172,5.2407648,-3.9051327,Eglise Catholique Gonzagueville,
StopPoint:node:6935494486,5.260825,-3.9593026,Arret INFS,
StopPoint:node:6935494487,5.2976825,-3.984569,Avenue de la Côte d'Ivoire / Boulevard V.G.E.,
StopPoint:node:6935494488,5.240277799999999,-3.9005942,Terminus Gonzagueville,
StopPoint:node:6935494499,5.2405691,-3.9050053,Eglise Catholique Gonzagueville,
StopPoint:node:6935494500,5.2414058,-3.9104489,Arret Mosquee,
StopPoint:node:6935494501,5.2422365,-3.9156765,Arret Casier,
StopPoint:node:6935494502,5.243186,-3.9216458,3e Arret Adjoufou,
StopPoint:node:6935494503,5.2437257,-3.9251145999999997,2e Arret Adjoufou,
StopPoint:node:6935494504,5.2444774999999995,-3.9298091,1er Arret Adjoufou,
StopPoint:node:6935494505,5.2456701,-3.9372024999999997,Arret Djeddah,
StopPoint:node:6935494506,5.2463232,-3.9413426,ex Hotel Vigie,
StopPoint:node:6935494507,5.2492807,-3.9541522,Ets Sylla et Freres,
StopPoint:node:6935494508,5.2573475,-3.9579212999999998,43e BIMA,
StopPoint:node:6935494509,5.299118,-4.006518799999999,Palais des Sports Treichville,
StopPoint:node:6935494511,5.3101948,-4.0149691999999995,Terminus Marche Treichville,
StopPoint:node:6937770645,5.3001426,-4.0079908,Arret KABALANE,
StopPoint:node:6937770646,5.2618319,-3.9594313999999997,Arret INFS,
StopPoint:node:6937770647,5.2467277999999995,-3.9424717,ex Hotel Vigie,
StopPoint:node:6937770649,5.2395482,-3.8973275,Carrefour Commissariat,
StopPoint:node:6937770650,5.238997299999999,-3.893671,Carrefour Chien,
StopPoint:node:6937770652,5.2375957,-3.8845292999999996,Carrefour Motar,
StopPoint:node:6937770653,5.2368982,-3.8800945,Terminus Anani,
StopPoint:node:6937770655,5.2368916,-3.8749901999999996,Arret Rond Point Anani,
StopPoint:node:6937770656,5.2372444,-3.8833564999999997,Carrefour Motar,
StopPoint:node:6937770657,5.2380743999999995,-3.888965,Carrefour Abraham,
StopPoint:node:6937770658,5.2386868,-3.8928086,Carrefour Chien,
StopPoint:node:6937770659,5.2391862,-3.8962466,Ancien Corridor,
StopPoint:node:6937789671,5.2562109999999995,-3.9649889,Restaurant Kader,
StopPoint:node:6938095648,5.4354794,-4.01522,Gare Sotra Abobo,
StopPoint:node:6938222040,5.4251075,-4.0224579,Epp Agnikro BAD,
StopPoint:node:6938222041,5.419530099999999,-4.0238686999999995,21e Arrondissement,
StopPoint:node:6938222042,5.4148659,-4.0240282999999994,Eglise Universelle Sagbe,
StopPoint:node:6938222043,5.4148024,-4.029494,Pharmacie St Antoine,
StopPoint:node:6938324861,5.5005578,-4.0807772,Terminus Ebimpe,
StopPoint:node:6938324863,5.5033477,-4.0785804,Arret Rue Jerusalem,
StopPoint:node:6938324864,5.5023732999999995,-4.0769589999999996,EPP Ebimpe,
StopPoint:node:6938324866,5.500248099999999,-4.0755107,Hotel Olympique,
StopPoint:node:6938324867,5.5002334,-4.07344,Arret Fransciscain,
StopPoint:node:6938324869,5.4982283,-4.066591,Carrefour Seminaire,
StopPoint:node:6938324870,5.4911312,-4.0678754999999995,Residence Akwaba,
StopPoint:node:6938324871,5.4864768,-4.0690747,Plaque Arabe,
StopPoint:node:6938324872,5.4830953,-4.0699141999999995,Arret Maison Blanche,
StopPoint:node:6938324873,5.479114399999999,-4.0709683,Stade Olympique,
StopPoint:node:6938324874,5.4762563,-4.0716523,Arret la Croix,
StopPoint:node:6938324875,5.4717733,-4.0727815,Ancien camp ONUCI,
StopPoint:node:6938324876,5.4679499,-4.073747099999999,Arret Hotel Akwaba,
StopPoint:node:6938324877,5.4640436999999995,-4.0738677999999995,Carrefour Amicha,
StopPoint:node:6938324878,5.4603402999999995,-4.0732723,Carrefour Eugnon,
StopPoint:node:6938324879,5.4562031,-4.0723120999999995,Carrefour Dandy,
StopPoint:node:6938324880,5.453168499999999,-4.0716133999999995,Carrefour Kobakro,
StopPoint:node:6938324881,5.4485534,-4.0706599,Pharmacie Ndotre,
StopPoint:node:6938324882,5.4450502,-4.0698471,Ndotre,
StopPoint:node:6938324883,5.443467399999999,-4.068122499999999,Paris baguette,
StopPoint:node:6938324884,5.4438246,-4.056007,Carrefour Diallo,
StopPoint:node:6938343085,5.4436702,-4.048408,Agripac,
StopPoint:node:6938407500,5.2608437,-3.9639542,Terminus Centre Pilote,
StopPoint:node:6938407503,5.2938719999999995,-3.9564407,Terminus Koumassi 23-67,
StopPoint:node:6938407504,5.238296399999999,-3.8886574,Carrefour Abraham,
StopPoint:node:6938792079,5.3147389,-4.0186301,Gare Sud,
StopPoint:node:6939014887,5.3023663,-3.966456,Carrefour la Colombe,
StopPoint:node:6939014888,5.3029366,-3.9640077,Terminus Remblais,
StopPoint:node:6939014890,5.3028803,-3.9639862999999997,Terminus Remblais,
StopPoint:node:6939014891,5.3017078,-3.9689554,Petroci,
StopPoint:node:6939014892,5.2987929,-3.9712880999999998,Cash Ivoire Marcory,
StopPoint:node:6939014894,5.3022895,-3.9848063999999996,Pharmacie Petit Marche,
StopPoint:node:6939014895,5.359076,-4.0274686,Gare Nord,
StopPoint:node:6939076692,5.2875727999999995,-4.0059154,Terminus 58 Cite du Port,
StopPoint:node:6943517785,5.8297498,-5.3576052,Gare S.T.B.A.,
StopPoint:node:6944816371,5.3314425,-4.0768933,Pharmacie Lem,
StopPoint:node:6944816372,5.330538499999999,-4.0798317,EPP Sicogi 11,
StopPoint:node:6944816373,5.3272911999999994,-4.0814191,Cite SGBCI Sideci,
StopPoint:node:6944887181,5.3310827,-4.023729299999999,Terminus Cite Administrative,
StopPoint:node:6944887182,5.4248385,-4.0232545,Epp Agnikro BAD,
StopPoint:node:6944887183,5.4198812,-4.0240256,21e Arrondissement,
StopPoint:node:6944887184,5.4151622,-4.0240981,Eglise Universelle Sagbe,
StopPoint:node:6944920985,5.4148679,-4.0292533,Pharmacie St Antoine,
StopPoint:node:6944920986,5.4148038,-4.0334696999999995,Terminus Sagbe,
StopPoint:node:6944934858,5.3274379,-4.0817052,Cite SGBCI Sideci,
StopPoint:node:6944934859,5.330153999999999,-4.080812,EPP Sicogi 11,
StopPoint:node:6944934860,5.3314305,-4.077306399999999,Pharmacie Lem,
StopPoint:node:6945017053,5.3521541,-3.9914099999999997,Cite des Cadres,
StopPoint:node:6945017054,5.356994299999999,-3.9914516,Ecobank Vallon,
StopPoint:node:6945659474,5.2569501999999995,-3.9722066999999996,Boulangerie Pain du Jour,
StopPoint:node:6945659475,5.2566850999999994,-3.9647528999999997,Restaurant Kader,
StopPoint:node:6945659476,5.2546846,-3.9643009,Pharmacie Atlantique,
StopPoint:node:6945659477,5.2511255,-3.9565238,Terminus Port Bouet Phare,
StopPoint:node:6945864857,5.2531341,-4.0047847999999995,Terminus Vridi Canal,
StopPoint:node:6945864859,5.2657115,-4.0087358,Arret Movis,
StopPoint:node:6945864860,5.2957541,-4.0033337,Arret Hopital,
StopPoint:node:6945966271,5.2607642,-4.0135453,Arret Corlay,
StopPoint:node:6945966272,5.2649101,-4.0138507,Arret Shell,
StopPoint:node:6945966273,5.2651886,-4.0113615,Arret Touton,
StopPoint:node:6945966274,5.266034599999999,-4.0086137,,
StopPoint:node:6945966275,5.268836299999999,-4.0060763,,
StopPoint:node:6948222228,5.3539128,-3.9571012,Pharmacie St Pierre des Rosiers,
StopPoint:node:6948222230,5.341757599999999,-3.9522725,Brandon & Mcain,
StopPoint:node:6948222234,5.3392333,-3.9452135999999998,Universite Internationale,
StopPoint:node:6948222235,5.338591699999999,-3.9428438999999997,Ecole Scarables,
StopPoint:node:6948222236,5.3355172,-3.9393643999999997,Carrefour UIPA,
StopPoint:node:6948222238,5.3307248,-3.9348771,Centre de Sante M'badon,
StopPoint:node:6948222239,5.3285468,-3.9322212,Teminus M'Badon,
StopPoint:node:6948270620,5.3285066,-3.9322521999999998,Teminus M'Badon,
StopPoint:node:6948270621,5.330538499999999,-3.9347577,Centre de Sante M'badon,
StopPoint:node:6948270622,5.3350722,-3.9390560999999997,Carrefour UIPA,
StopPoint:node:6948270623,5.3390287,-3.9451433999999996,Universite Internationale,
StopPoint:node:6948270624,5.3329113999999995,-3.9418453999999996,Ambassade de Chine,
StopPoint:node:6948270625,5.3538285,-3.9568537,Pharmacie St Pierre des Rosiers,
StopPoint:node:6948290581,5.3385823,-3.9429814,Ecole Scarables,
StopPoint:node:6948466336,5.3673196999999995,-3.9092667,Coqivoire Bingerville,
StopPoint:node:6948466337,5.3613311999999995,-3.8946091,Lycee Jeune Fille de Bingerville,
StopPoint:node:6948466343,5.3726769999999995,-3.9285967,Nouveau Goudron,
StopPoint:node:6948695731,5.3346312,-3.9906777,Entree Sud Universite FHB,
StopPoint:node:6948695732,5.3396564,-3.9758237,Cash Center Riviera Golf,
StopPoint:node:6948695733,5.341491899999999,-3.9761442,Residence les Elias,
StopPoint:node:6948695734,5.3438403,-3.9751570999999997,Carrefour Cimetiere Anono,
StopPoint:node:6948695735,5.347092099999999,-3.975412,Marche Anono,
StopPoint:node:6948695736,5.3520693,-3.9767208999999997,Poulet Show,
StopPoint:node:6948695738,5.3530133,-3.9758733,Cite Universitaire Riviera 2,
StopPoint:node:6948695739,5.35209,-3.9766203,Poulet Show,
StopPoint:node:6948695740,5.3468222999999995,-3.9752188,Marche Anono,
StopPoint:node:6948695741,5.343802,-3.9750873999999996,Carrefour Cimetiere Anono,
StopPoint:node:6948695742,5.341614799999999,-3.9760651,Residence les Elias,
StopPoint:node:6948695743,5.3397193,-3.9757586,Cash Center Riviera Golf,
StopPoint:node:6948695745,5.3344007,-3.9909146,Entree Sud Universite FHB,
StopPoint:node:6948695746,5.3349056,-3.9957176,Lycee Ste Marie Cocody,
StopPoint:node:6948706680,5.321664,-4.0157926,Versus Bank,
StopPoint:node:6948706681,5.3184017,-4.0152582,Arrêt Résidence Nabil,
StopPoint:node:6948706682,5.3044274,-4.0092923,Treichotel,
StopPoint:node:6948791226,5.2949249,-4.0042001,Terminus CHU de Treichville,
StopPoint:node:6948855821,5.3599399,-3.9614751999999998,Arrêt,
StopPoint:node:6948855822,5.3706976,-3.9286331999999997,Immeuble Assistance Optique,
StopPoint:node:6948855823,5.3584311,-3.9253853999999997,Société Ciment d'Abidjan,
StopPoint:node:6948855825,5.3532496,-3.9241629999999996,Coqivoire,
StopPoint:node:6948855826,5.3504865,-3.9235317,Ecoforp,
StopPoint:node:6948855827,5.338555599999999,-3.9228315,Oribat,
StopPoint:node:6948855829,5.328221699999999,-3.9191626999999998,Espace Abatta Place,
StopPoint:node:6948855830,5.3282739999999995,-3.9170830999999997,Notre Dame de Lourdes,
StopPoint:node:6948920958,5.3264515,-3.9160803,Terminus Abatta Village,
StopPoint:node:6948920959,5.3282218,-3.9169357999999996,Notre Dame de Lourdes,
StopPoint:node:6948920962,5.3450557,-3.9224642999999997,Cite du Bonheur,
StopPoint:node:6948920964,5.3532917,-3.9242797,Coqivoire,
StopPoint:node:6948920965,5.3576063,-3.9252939,Pharmacie Eau Vive,
StopPoint:node:6948920966,5.359984,-3.9258534,Sodeci Abatta,
StopPoint:node:6948920967,5.3722753999999995,-3.9301027,Carrefour Nouveau Goudron,
StopPoint:node:6951127813,5.2597086,-3.9654422,Pharmacie de Port Bouet Arret Mairie,
StopPoint:node:6951127815,5.259591899999999,-3.9687382999999996,Arret Abattoir,
StopPoint:node:6951127816,5.314565399999999,-4.018173099999999,Gare Sud,
StopPoint:node:6951182064,5.329765999999999,-3.9539321,Chantier,
StopPoint:node:6951182065,5.3308393,-3.9572079,Ancien Terminus Mpouto,
StopPoint:node:6951182066,5.3414478999999995,-3.952412,Brandon & Mcain,
StopPoint:node:6951224049,5.2921887,-3.9630926,Eglise St Etienne,
StopPoint:node:6951224050,5.2898815,-3.9694045,6e Arrondissement Koumassi,
StopPoint:node:6951224051,5.3586694,-4.0276527,Gare Nord,
StopPoint:node:6951939383,5.294143099999999,-3.9554248,Gare Koumassi,
StopPoint:node:6951939384,5.3587923,-4.0273499,Gare Nord,
StopPoint:node:6952071069,5.3024324,-3.9635002999999998,Terminus 31 Remblais,
StopPoint:node:6952071070,5.2975569,-3.9623321999999996,Trois Ampoules,
StopPoint:node:6952132224,5.298845399999999,-4.0109347,SOGELEC,
StopPoint:node:6952132225,5.2884063,-3.9882887,Patisserie Paul,
StopPoint:node:6952132226,5.2853422,-3.9855023999999997,SIB,
StopPoint:node:6952132227,5.2786718,-3.9824903,COCITAM,
StopPoint:node:6952132228,5.2734369,-3.9767262,Notre Dame Afrique,
StopPoint:node:6952132229,5.2734089,-3.9714864999999997,Les 7 Villas,
StopPoint:node:6952132230,5.276028,-3.9672503,Arrêt OSER,
StopPoint:node:6952132231,5.247535699999999,-3.9475719999999996,Maquis 5 sur 5,
StopPoint:node:6952132232,5.248613499999999,-3.9434065,Pharmacie du Warf,
StopPoint:node:6952132233,5.2544081,-3.9386438999999998,Cite Douane,
StopPoint:node:6952132234,5.2536201,-3.934246,Terminus Aeroport,
StopPoint:node:6952132235,5.246940899999999,-3.9450909,33e Arrondissement,
StopPoint:node:6952132236,5.268390999999999,-3.9618628,Carrefour Akwaba,
StopPoint:node:6952132240,5.254402799999999,-3.9409603,Paroisse Ascension,
StopPoint:node:6952132241,5.2508121999999995,-3.9424357,Arret Departement Reseau Bus Port-Bouet,
StopPoint:node:6952132242,5.2480679,-3.9435727999999997,Pharmacie du Warf,
StopPoint:node:6952132244,5.2567618,-3.9610942999999996,Parmacie Ocean,
StopPoint:node:6952132245,5.2664979999999995,-3.9627318,Carrefour Akwaba,
StopPoint:node:6952132246,5.2726637,-3.9751597999999997,Notre Dame Afrique,
