stop_point_id,lat,lon,name,first_stop_area_id
StopPoint:node:33320929,5.2423326999999995,-3.9158817,,
StopPoint:node:768587345,5.3164438999999994,-4.089334099999999,Terminus 27,
StopPoint:node:768587373,5.3198836,-4.0804024,Terminus 42 Yopougon,
StopPoint:node:773855851,5.4038879,-3.9857593999999996,Terminus 81/82,
StopPoint:node:775786985,5.3309391999999995,-3.9578221,Ex Terminus Sotra;Carrefour Sol Beni,
StopPoint:node:1955914051,5.3100743,-4.0150469,Avenue Christiani,
StopPoint:node:2003993801,7.669522799999999,-5.0442792999999995,1er Arrêt des Gbaka,
StopPoint:node:2381298633,5.3608351,-4.0171228999999995,Agban,
StopPoint:node:2443736823,5.306861,-3.9640635,Gare de Wôrô-Wôrô d'Anoumabo,
StopPoint:node:2444131222,5.3438972,-4.018311,Fraternité Matin,
StopPoint:node:2453443617,5.3115337,-3.9740528999999998,Arret de bus,
StopPoint:node:2460519991,5.3423485,-4.073243199999999,Saint André lavage,
StopPoint:node:2476299733,5.3057476,-3.9763355,,
StopPoint:node:2476303039,5.3068867,-3.9773022,Arrêt de bus (03-31),
StopPoint:node:2476303739,5.3107413999999995,-3.9772089,Arrêt de bus (03-31),
StopPoint:node:2476306856,5.311706,-3.9732735,Arrêt de bus (03-31),
StopPoint:node:2476308724,5.3101303,-3.9640413,Arrêt de bus (03-31),
StopPoint:node:2476311863,5.3079236,-3.9640009999999997,Arrêt de bus (03-31),
StopPoint:node:2476314228,5.3078622,-3.9640017999999997,Arrêt de bus (03-31),
StopPoint:node:2477686907,5.3064881999999995,-3.9857649,,
StopPoint:node:2493226931,5.3413477,-4.0238718,Arrêt,
StopPoint:node:2493730483,5.2942027,-3.9551669,Gare Koumassi,
StopPoint:node:2493732230,5.2948938,-3.9559024999999997,woro woro adjame,
StopPoint:node:2760843854,5.312132399999999,-3.9452249999999998,Terminus 05 Lycée Municipal de Koumassi,
StopPoint:node:2902894063,5.3538554,-4.016554,Gare de wôrô-wôrô de Williamsville,
StopPoint:node:2948146673,5.3396167,-4.0832298,Terminus bus 47,
StopPoint:node:3025272708,5.2955802,-3.9874929,,
StopPoint:node:3067761599,5.3396156999999995,-4.0912463,Arret du Maroc,
StopPoint:node:3067766418,5.340233899999999,-4.1003523,,
StopPoint:node:3067766555,5.3400628999999995,-4.0973067,Mosquée du Maroc,
StopPoint:node:3075945505,5.3423254,-4.0738294999999995,Saint André,
StopPoint:node:3123713351,5.3285458,-3.932282,Terminus Sotra M’Badon,
StopPoint:node:3137208051,5.3427541,-4.0668084,,
StopPoint:node:3137217828,5.3436761,-4.0709484,2 poteaux,
StopPoint:node:3137243386,5.344676799999999,-4.0679411,Newton,
StopPoint:node:3137244964,5.344552,-4.0677822,,
StopPoint:node:3142681418,5.3807202,-3.9644698,,
StopPoint:node:3145728412,5.3531943,-3.9793588,Riviéra 2,
StopPoint:node:3172419225,5.3250807,-4.001591299999999,,
StopPoint:node:3178527188,5.4046921,-3.9920069,Gare des taxis d'Abobo,
StopPoint:node:3218806159,5.3116268,-3.9487007,Terminus 32,
StopPoint:node:3218939370,5.3099478,-3.9472003,"arrèt de bus( 32,05,24,92,205)",
StopPoint:node:3218939371,5.3099637,-3.9473634,"arrèt de bus( 32,05,24,92,205)",
StopPoint:node:3326195828,5.3368705,-4.0037743,Saint Jean,
StopPoint:node:3396926870,5.2892377,-3.9691935,Wôrô-wôrô,
StopPoint:node:3396926874,5.2899064,-3.9694482,,
StopPoint:node:3489747206,5.268506899999999,-4.0062837,,
StopPoint:node:3605638544,5.3458049999999995,-3.9901614999999997,Arrêt de bus - Université,
StopPoint:node:3666057101,5.3470566999999996,-4.0884501,Pharmacie Port-Bouët II,
StopPoint:node:3781465058,7.6847015,-5.0450308999999995,,
StopPoint:node:3806582754,7.6820602,-5.0301887,Arrêt de bus,
StopPoint:node:3950172145,5.3493507,-4.0734547,Figayo,
StopPoint:node:4019691346,5.3408323,-4.0649916,,
StopPoint:node:4021778943,7.6890129,-5.03025,,
StopPoint:node:4029208102,5.3616481,-3.9973698,"ENA Cocody, Boulevard Latrille",
StopPoint:node:4038594408,5.4744709,-3.8045586,Station Autobus,
StopPoint:node:4063655568,5.3349310999999995,-3.9956704999999997,,
StopPoint:node:4063656146,5.3345154,-3.9903182,,
StopPoint:node:4107240493,5.276244,-3.9668949,Gare de Wôrô Wôrô,
StopPoint:node:4107240891,5.2742872,-3.9786938,Arrêt de Bus Sotra,
StopPoint:node:4165904524,7.6879789999999995,-5.0280607999999996,,
StopPoint:node:4191723232,5.2405957,-3.9050024,,
StopPoint:node:4191723587,5.2395797,-3.8985515,,
StopPoint:node:4191725493,5.2432962,-3.9221302999999996,,
StopPoint:node:4191725498,5.244583899999999,-3.9301833,,
StopPoint:node:4191725500,5.2457139,-3.9371923,,
StopPoint:node:4191725506,5.2608212,-3.9592706,,
StopPoint:node:4191725508,5.2659297,-3.9610339,,
StopPoint:node:4249632774,5.3585107,-4.0372919,Termunis du bus 02 Cité fairmont,
StopPoint:node:4336259489,5.2568787,-3.9774906999999997,,
StopPoint:node:4337038016,5.2651661,-4.0114259,,
StopPoint:node:4411562346,5.3296306,-4.061373,Terminus 85,
StopPoint:node:4430910012,7.6796280999999995,-5.0279685999999995,,
StopPoint:node:4633269025,5.4818964,-4.0515794,,
StopPoint:node:4659944490,5.3133456,-3.9439194,Koumassi terminus 05,
StopPoint:node:4782251624,5.2745951,-3.9810261,Rodrigue,
StopPoint:node:4819697544,5.3159469,-4.089632,Gare Azito,
StopPoint:node:4858065722,5.348518299999999,-4.0039133,Gare Plateau de la vie,
StopPoint:node:4977476396,5.369294,-3.9984043999999996,Gare wôrô-wôrô Deux Plateaux,
StopPoint:node:4999458824,5.2948564,-4.0040908,Terminus CHU de Treichville,
StopPoint:node:5030710121,5.7632777,-3.9789021,Carrefour Pecto,
StopPoint:node:5057165424,5.301876699999999,-4.0110975,Ex-pharmacie Mockey,
StopPoint:node:5057297311,5.3369029,-4.0039817,Arrêt de bus 94;Carrefour St Jean,
StopPoint:node:5061017421,5.7585332,-3.9823245,Carrefour Affoue,
StopPoint:node:5068855021,5.4158257999999995,-3.9933115999999997,Terminus 704 abobo Belleville,
StopPoint:node:5143730222,5.3283086,-3.9410271,terminus bus 41;28;wibus 702,
StopPoint:node:5143751833,5.328447499999999,-3.9410391,"Terminus bus 41, 28, Wibus",
StopPoint:node:5147952122,5.4218733,-4.0165052,"Gare de gbaka Dokui, Zoo, Paillet",
StopPoint:node:5151223622,5.4215881,-4.016037799999999,Gare Angré Pétro Ivoire,
StopPoint:node:5151231923,5.351134399999999,-3.9911496,Arrêt wibus,
StopPoint:node:5156837725,5.3537326,-4.0280581,Gare de wôrô-wôrô Treichville Marcory Koumassi,
StopPoint:node:5156856821,5.3090367999999994,-4.0153032,Gare de wôrô-wôrô,
StopPoint:node:5281604034,5.3437686,-4.0711802,,
StopPoint:node:5299283324,5.342251699999999,-4.0664755999999995,,
StopPoint:node:5299389451,5.3407348,-4.0649226,,
StopPoint:node:5414376221,5.3555889,-4.0205264,Stif,
StopPoint:node:5425049447,5.3222796,-4.0530042,Gare de Bingerville,
StopPoint:node:5481186122,7.4541637,-4.3380804,KKM TRANSPORT,
StopPoint:node:5535571842,5.132472,-3.2925646,Traversée pirogue,
StopPoint:node:5739489700,5.341336999999999,-4.062336999999999,Complexe sportif de Yopougon,
StopPoint:node:5892858715,5.788166599999999,-6.600311,GARE D'OKROUYO,
StopPoint:node:5892933976,5.7886863,-6.6001027,Gare TSF Odienne,
StopPoint:node:5892936985,5.7884965,-6.6001362,Gare d’Odienné,
StopPoint:node:5892936988,5.7884081,-6.600043299999999,Gare de Dibievi,
StopPoint:node:5927302128,5.349342699999999,-4.073208,Figayo,
StopPoint:node:5934409413,5.3419897,-4.1003513,Arret de bus,
StopPoint:node:5936892363,5.3670807,-4.1019706,Terminus du bus 34,
StopPoint:node:5953580657,5.402885899999999,-3.9785378999999996,Bicici Djibi,
StopPoint:node:5953580661,5.3802448,-3.967352,Pharmacie Val de Grace,
StopPoint:node:5953580666,5.3695213,-3.9586785,Pharmacie du bonheur,
StopPoint:node:5953580667,5.3620152999999995,-3.9592902999999997,Carrefour Palmeraie,
StopPoint:node:5953580668,5.3582581,-3.9643623,Station Shell Riviera 3,
StopPoint:node:5954541435,5.328553599999999,-3.949563,CIAD,
StopPoint:node:5954541438,5.3358519,-3.9767957999999997,Ambassade des USA,
StopPoint:node:5954541439,5.3347766,-3.9902178999999998,Boulevard de France,
StopPoint:node:5954541440,5.3492831,-4.0024723,Carrefour de la Vie,
StopPoint:node:5957239660,5.412186999999999,-3.9820396999999996,Chateau d'eau d'Angré,
StopPoint:node:5957239661,5.4046007,-3.9908227,Petro Ivoire Angré,
StopPoint:node:5957239662,5.3989296,-3.991548,Carrefour 22è,
StopPoint:node:5957239663,5.3855754,-3.9931427999999998,Carrefour Opéra,
StopPoint:node:5957239664,5.3778779,-3.9973645999999996,Carrefour Duncan,
StopPoint:node:5957239665,5.3615936,-3.9975967999999997,ENA,
StopPoint:node:5957239666,5.328577999999999,-4.0050058,Hotel Ivoire,
StopPoint:node:5957239667,5.3222225,-4.0026151,Blockhauss,
StopPoint:node:5958266385,5.3975314,-3.9860303,Pharmacy Les Laureades,
StopPoint:node:5958266386,5.3806538999999995,-3.9881293999999996,Petro Ivoire 7è Tranche,
StopPoint:node:5958266387,5.373758,-3.9845519,Commisariat 30è Art.,
StopPoint:node:5958266388,5.370110899999999,-3.9813020999999997,Terminus 202 Attoban,
StopPoint:node:5958266389,5.3673274,-3.9797108999999997,Parmacie St Bernard,
StopPoint:node:5958266390,5.3573659,-3.9782153,Pharmacie St Ange,
StopPoint:node:5958266391,5.3560571999999995,-3.9778765,Collège André Malraux,
StopPoint:node:5958266392,5.3541948,-3.977334,Riviera 2,
StopPoint:node:5961735082,5.4239193,-4.0499566,Gare Gbaka Anonkou-Sodeci,
StopPoint:node:6061198384,5.2561629,-3.9581277999999998,Lycée Moderne Port Bouët,
StopPoint:node:6098848385,5.3247785,-4.0207447,Saint Paul Plateau,
StopPoint:node:6136850508,5.3238629,-4.0205261,Hôtel de Ville,
StopPoint:node:6136850509,5.3234932,-4.0205339,Hotel de Ville,
StopPoint:node:6136850510,5.3236666999999995,-4.0205326999999995,,
StopPoint:node:6136858285,5.3226907,-4.0205256,Terminus Hotel de Ville,
StopPoint:node:6195348341,5.3317403,-4.021322,Cathédrale Saint paul,
StopPoint:node:6281030720,5.415019699999999,-4.0339138,Terminus bus 51/52,
StopPoint:node:6474137921,5.4351427999999995,-4.0144508,Gare Abobo Sogephia,
StopPoint:node:6474137923,5.4363696,-4.0125445,BICICI,
StopPoint:node:6474137925,5.4382601,-4.0147452,Cours Sociaux,
StopPoint:node:6474137927,5.4381179,-4.019424,Avenue Kaza,
StopPoint:node:6474137929,5.4355632,-4.0202585,Camp Commando,
StopPoint:node:6474137931,5.4306474,-4.0200922,Station Shell,
StopPoint:node:6474137932,5.4263959,-4.0198488,Gendarmerie Abobo,
StopPoint:node:6474137934,5.4234101,-4.0187446,Terminus Gendarmerie Abobo,
StopPoint:node:6474137936,5.417174999999999,-4.0166616,2ème Arrêt,
StopPoint:node:6474137938,5.4131456,-4.0159709999999995,Banco,
StopPoint:node:6474137940,5.4089746,-4.0160152,Anador,
StopPoint:node:6474137942,5.392647,-4.0207427,Université Nangui Abrogoua,
StopPoint:node:6474137944,5.3774907,-4.0255918,Macaci,
StopPoint:node:6474137946,5.3592115,-4.0276442999999995,Gare Nord Adjamé,
StopPoint:node:6474137948,5.3592208999999995,-4.0274676,Gare Nord,
StopPoint:node:6474137950,5.3533564,-4.0257670999999995,Grande Mosquée Adjamé,
StopPoint:node:6474137952,5.3477689999999996,-4.0256668,Foire de Chine,
StopPoint:node:6474137954,5.3431983999999995,-4.0259753,Mairie d'Adjamé,
StopPoint:node:6474137956,5.3312672,-4.0238205,Terminus tours Administratives,
StopPoint:node:6474137958,5.3278045,-4.0238800999999995,Immeuble Sogefiha,
StopPoint:node:6474137967,5.314485599999999,-4.0181311,Quai 15 Gare Sud SOTRA Plateau,
StopPoint:node:6474137979,5.3179650999999994,-4.019718,Présidence,
StopPoint:node:6474137980,5.3225013,-4.019747199999999,Hotel de Ville,
StopPoint:node:6474137981,5.3339569,-4.0247204,Camp Galliéni,
StopPoint:node:6474137982,5.3386571,-4.026107,Institut National de la Santé Publique,
StopPoint:node:6474137983,5.343713,-4.0260495999999995,Mairie d'Adjamé,
StopPoint:node:6474137984,5.3459921,-4.0258452,Marché Forum,
StopPoint:node:6474138985,5.3503589,-4.0255765,Pharmacie du Banco,
StopPoint:node:6474138986,5.3534527,-4.0259070999999995,Grande Mosquée Adjamé,
StopPoint:node:6474138987,5.3588612,-4.0281601,Gare Nord Adjamé,
StopPoint:node:6474138988,5.3765848,-4.0264424,Macaci,
StopPoint:node:6474138989,5.3906844,-4.0210349999999995,Filtisac,
StopPoint:node:6474138990,5.4085961,-4.0162968999999995,Anador,
StopPoint:node:6474138991,5.4135848,-4.0162419,Banco,
StopPoint:node:6474138992,5.4183764,-4.0173344,Saint-Joseph 2ème Arrêt,
StopPoint:node:6474138993,5.423733899999999,-4.0190791,Terminus Gendarmerie Abobo,
StopPoint:node:6474138994,5.4315506,-4.020231,Bar Ivoire Abobo,
StopPoint:node:6474138995,5.4363436,-4.0203885999999995,DGI Abobo,
StopPoint:node:6474138996,5.4382274,-4.0189201,Avenue Kaza,
StopPoint:node:6474138997,5.4383935999999995,-4.0138587,Carrefour Akeïkoi,
StopPoint:node:6474138999,5.3149589,-4.0190673,Terminus Gare Sud,
StopPoint:node:6474139031,5.4350792,-4.0127537,Cité Universitaire Abobo,
StopPoint:node:6474139033,5.4354761,-4.0154322,Quai 15,
StopPoint:node:6614329781,5.3443185,-4.003689,,
StopPoint:node:6720381564,5.3117174,-3.9516293,,
StopPoint:node:6815808830,5.3580852,-3.9641507,Station Shell Riviera 3,
StopPoint:node:6815808831,5.3620442,-3.9591336,Carrefour Palmeraie,
StopPoint:node:6815808832,5.3802452,-3.9672641,Pharmacie Val de Grace,
StopPoint:node:6815808833,5.3866258,-3.9744137999999998,CNPS 9ème Tranche,
StopPoint:node:6815808834,5.4010459,-3.9780244,Marché COCOVICO,
StopPoint:node:6815808835,5.4028903999999995,-3.9783234999999997,Bicici Djibi,
StopPoint:node:6815808838,5.4037729,-3.9857961,Terminus 81/82,
StopPoint:node:6815808839,5.3738506,-3.9618124999999997,Quick Market,
StopPoint:node:6815808840,5.373772799999999,-3.9618580999999997,Quick Market,
StopPoint:node:6815808841,5.3776576,-3.9634251999999996,Commissariat 35è Art.,
StopPoint:node:6815808842,5.3776142,-3.9635563,Commissariat 35è Art.,
StopPoint:node:6815808843,5.3866021,-3.9745307999999997,CNPS 9ème Tranche,
StopPoint:node:6815808844,5.4010469,-3.9781651,Marché COCOVICO,
StopPoint:node:6815808845,5.3695696,-3.958801,Pharmacie du bonheur,
StopPoint:node:6815808846,5.3832059999999995,-3.9725319,Groupe Scolaire St Marc,
StopPoint:node:6815808847,5.3833082,-3.9725091,Groupe Scolaire St Marc,
StopPoint:node:6815960786,7.6694748,-5.049180499999999,3ème Arrêt des Gbaka,
StopPoint:node:6815960886,7.669486099999999,-5.050218399999999,Carrefour Pharmacie,
StopPoint:node:6815960887,7.669467099999999,-5.0529386,5ème Arrêt des Gbaka,
StopPoint:node:6815960888,7.669445499999999,-5.0557593,6ème Arrêt des Gbaka,
StopPoint:node:6815960889,7.669436999999999,-5.0574297,7ème Arrêt des Gbaka,
StopPoint:node:6815960890,7.669422399999999,-5.0595421,Ancien Terminus des Gbaka,
StopPoint:node:6815961286,7.6695072,-5.0469291,2ème Arrêt des Gbaka,
StopPoint:node:6815972585,7.669482599999999,-5.0491869,4ème Arrêt des Gbaka,
StopPoint:node:6815972586,7.6694327,-5.0581293,Carrefour Jaune-Noir,
StopPoint:node:6815972685,7.6694765,-5.051544,4ème Arrêt des Gbaka,
StopPoint:node:6816010586,7.6720159,-5.043031399999999,Arrêt du Banco,
StopPoint:node:6816010685,7.6756074,-5.0402885,Carrefour Santé Mentale,
StopPoint:node:6819328985,5.282598999999999,-3.9692171999999997,,
StopPoint:node:6819329085,5.2892136,-3.9707407,Grand carrefour de Koumassi,
StopPoint:node:6819329086,5.292096,-3.9740699999999998,Ibis Marcory,
StopPoint:node:6819329087,5.3194934,-4.0143679,,
StopPoint:node:6819329185,5.291629299999999,-3.9736909999999996,Ibis Marcory,
StopPoint:node:6819329285,5.3009007,-3.9897707,Grand carrefour de Marcory,
StopPoint:node:6820855646,5.335819,-3.9767154999999996,Ambassade des USA,
StopPoint:node:6820855647,5.3309825,-3.9728877,Hotel du Golf,
StopPoint:node:6820855648,5.3310452999999995,-3.9729685,Hotel du Golf,
StopPoint:node:6820855649,5.3311581,-3.9577563,Ex Terminus Sotra;Carrefour Sol Beni,
StopPoint:node:6831076677,5.332764,-4.021605,Cathédrale Saint paul,
StopPoint:node:6831076678,5.3300452,-4.0205564,Église Méthodiste Unie de Côte d'Ivoire,
StopPoint:node:6831076682,5.3148517,-4.0185085,Gare Sud,
StopPoint:node:6832290086,5.2989356999999995,-3.9868728,,
StopPoint:node:6899034705,5.2996481,-4.002239299999999,Gare de bassam,
StopPoint:node:6899034706,5.3004143,-3.9997862,Gendarmerie,
StopPoint:node:6899034707,5.303315,-4.0037983,Notre-dame,
StopPoint:node:6899034708,5.3072484,-4.005186,Pharmacie Nanan Yamousso,
StopPoint:node:6899034709,5.3099574,-4.0061406999999996,Après le pont,
StopPoint:node:6899034710,5.353411599999999,-4.0160602999999995,Adjamé liberté,
StopPoint:node:6899053345,5.3534641,-4.014846299999999,Adjamé liberté,
StopPoint:node:6899053346,5.353536399999999,-4.0120306999999995,Gare de Bingerville,
StopPoint:node:6899053347,5.325075,-4.0152949,Feux du plateau,
StopPoint:node:6899053348,5.310149099999999,-4.0061218,Nanan Yamousso,
StopPoint:node:6899053349,5.2996796999999995,-4.0024275,Gare de bassam,
StopPoint:node:6899241573,5.4200067,-4.0174383,Abobo Gare Mairie,
StopPoint:node:6899241574,5.4142627,-4.0159966,Mobil,
StopPoint:node:6899241575,5.3845867,-4.0214171,Lavage,
StopPoint:node:6899241576,5.37725,-4.0257575,Macaci,
StopPoint:node:6899241577,5.354345899999999,-4.0164004,Adjamé Liberté,
StopPoint:node:6899264970,5.349107,-4.021217399999999,Marché Gouro,
StopPoint:node:6899264971,5.3547097,-4.0163905,Adjamé Liberté,
StopPoint:node:6899264972,5.358734,-4.016791,Station Total,
StopPoint:node:6899264973,5.4215493,-4.0171184,Abobo Gare Mairie,
StopPoint:node:6900316196,5.3464187999999995,-3.9971869,,
StopPoint:node:6900316198,5.3353193,-3.9976103999999997,,
StopPoint:node:6900316199,5.3353627999999995,-3.9999658,,
StopPoint:node:6900317090,5.3377541,-3.9961887999999997,,
StopPoint:node:6902638988,5.4195822,-4.0153259,Carrefour Marché,
StopPoint:node:6902638989,5.4186048,-4.0135168,Petro Ivoire,
StopPoint:node:6902638990,5.4168519,-4.010197499999999,Au Bar,
StopPoint:node:6902638991,5.415799799999999,-4.0080786,Petit Carrefour,
StopPoint:node:6902638992,5.4152517,-4.0066972,Samaké,
StopPoint:node:6902638993,5.3994804,-4.0064893999999995,Azur,
StopPoint:node:6902638994,5.3780522,-4.0070352,Panneau ZOO,
StopPoint:node:6902638995,5.4197843,-4.0157753,Abobo Gare Mairie,
StopPoint:node:6902638996,5.417654799999999,-4.0117095,Ciné Cool,
StopPoint:node:6902638997,5.4144283,-4.0062697,Boulangerie Samake,
StopPoint:node:6902638998,5.410863,-4.0062877,Menuiserie,
StopPoint:node:6902638999,5.4101067,-4.0063067,Tchapatcha,
StopPoint:node:6902639000,5.4092677,-4.0063409,Chaine Avion,
StopPoint:node:6902639001,5.4051187999999994,-4.0063993,Pharmacie Dokui,
StopPoint:node:6902639002,5.4036347,-4.0064176,SODECI,
StopPoint:node:6902639003,5.4020966999999995,-4.0064567,Étage Noir,
StopPoint:node:6902639004,5.4001879,-4.0064867,Mobil,
StopPoint:node:6902639005,5.396817899999999,-4.006353,Arrêt Dokui,
StopPoint:node:6902639006,5.3929293,-4.005793,Ancien Feu,
StopPoint:node:6902639007,5.3872276,-4.005732,Bangui,
StopPoint:node:6902639008,5.385186399999999,-4.0060126,Vidange,
StopPoint:node:6902639009,5.382931,-4.0063262,HMA,
StopPoint:node:6902639010,5.3721147,-4.011813399999999,Carrefour paillet,
StopPoint:node:6902639011,5.3653116999999995,-4.0157875999999995,Carrefour 2 Plateaux,
StopPoint:node:6902639012,5.3553627,-4.0160705,Gare des gbakas d’Abobo par le zoo,
StopPoint:node:6902868224,5.4184847,-4.0136214,Petro Ivoire,
StopPoint:node:6902868225,5.4176462999999995,-4.0120067,Ciné Cool,
StopPoint:node:6902868226,5.4167077,-4.0102981,Au Bar,
StopPoint:node:6902868227,5.405193499999999,-4.0065403,Pharmacie Dokui,
StopPoint:node:6902868228,5.403670099999999,-4.0065873,SODECI,
StopPoint:node:6902868229,5.40212,-4.0066315,Étage Noir,
StopPoint:node:6902868230,5.4002026999999995,-4.0066597,Mobil,
StopPoint:node:6902868231,5.3994577,-4.0066033999999995,Azur,
StopPoint:node:6902868232,5.3965911,-4.0064518,Arrêt Dokui,
StopPoint:node:6902868233,5.3928327,-4.0059301,Ancien Feu,
StopPoint:node:6902868234,5.387252999999999,-4.005859,Bangui,
StopPoint:node:6902868235,5.3852715,-4.0061326,Vidange,
StopPoint:node:6902868236,5.3829176,-4.0064505,HMA,
StopPoint:node:6902868237,5.3716859,-4.0122238999999995,Carrefour paillet,
StopPoint:node:6902868238,5.365405,-4.0159576,Carrefour 2 Plateaux,
StopPoint:node:6902868239,5.3633371,-4.016812799999999,Willy Agban,
StopPoint:node:6902868240,5.366829699999999,-4.0152076999999995,Cimetière,
StopPoint:node:6902868241,5.3765336999999995,-4.0094557,CIE,
StopPoint:node:6902868242,5.378993899999999,-4.0070149,ZOO,
StopPoint:node:6902868243,5.390055299999999,-4.0056173,Eglise,
StopPoint:node:6902868244,5.41329,-4.0099567,Pharmacie Racines,
StopPoint:node:6902868245,5.4197638999999995,-4.0160257,Abobo Gare Mairie,
StopPoint:node:6902975747,5.4500231999999995,-4.0135154,Christine Bar,
StopPoint:node:6902975748,5.4607326,-4.0109926,Terminus Akéikoi village,
StopPoint:node:6902975749,5.45899,-4.010773299999999,A l'école,
StopPoint:node:6902975750,5.455207,-4.0112928,Destin,
StopPoint:node:6902975751,5.4542173,-4.0119565999999995,Monnaie,
StopPoint:node:6902975752,5.4528753,-4.012859199999999,André Bar,
StopPoint:node:6902975753,5.451049299999999,-4.0133357,Carrefour marché,
StopPoint:node:6902975754,5.446249,-4.0143571,A l'étage,
StopPoint:node:6902975755,5.4394513,-4.0141843,Boulangerie,
StopPoint:node:6902975756,5.438403999999999,-4.0140794,Carrefour Akéikoi,
StopPoint:node:6902975757,5.4225885,-4.0161726,Gare Gbaka Akeïkoi,
StopPoint:node:6903084141,5.4510779,-4.0134484,Carrefour marché,
StopPoint:node:6903084142,5.4530404,-4.0129173,André Bar,
StopPoint:node:6903084143,5.4542793,-4.0120751,Monnaie,
StopPoint:node:6903097494,5.438503,-4.0142825,Au goudron,
StopPoint:node:6903097495,5.4227551,-4.0160694,Gare Abobo,
StopPoint:node:6903097496,5.4230450999999995,-4.013945,Au tournant,
StopPoint:node:6903097497,5.427878199999999,-4.0146817,Au Feu,
StopPoint:node:6903097498,5.4334549999999995,-4.0124107,Célibataire,
StopPoint:node:6903097499,5.4352003,-4.0124925,JAUG,
StopPoint:node:6903097500,5.4383232999999995,-4.013588299999999,Cité,
StopPoint:node:6903097501,5.4490169999999996,-4.0138345,Boulangerie,
StopPoint:node:6903097502,5.4500084,-4.0136722,Christine Bar,
StopPoint:node:6903097503,5.455298399999999,-4.01134,Destin,
StopPoint:node:6903097504,5.4594778999999996,-4.0109968,A l'ecole,
StopPoint:node:6903097505,5.460775,-4.0111868,Terminus Akéikoi Village,
StopPoint:node:6903193216,5.4429020999999995,-4.0144891,Mosquée,
StopPoint:node:6903193217,5.4463091,-4.0144891,A l'étage,
StopPoint:node:6903268819,5.421939999999999,-4.0165181,Abobo Gare Mairie,
StopPoint:node:6903268820,5.4223082,-4.0163196999999995,Gare Abobo Kennedy-Marché/ Mosquée Ado,
StopPoint:node:6903268821,5.4211585,-4.0100057,Station,
StopPoint:node:6903268822,5.4236887,-4.0015221,Kennedy Marché,
StopPoint:node:6903296476,5.4221255,-4.011717,Mosquée,
StopPoint:node:6903296477,5.418662299999999,-4.0060106,Carrefour Kennedy,
StopPoint:node:6903296478,5.418612899999999,-4.005922099999999,Carrefour Kennedy,
StopPoint:node:6903296479,5.4213432,-4.0039185,Makan Traoré,
StopPoint:node:6903296480,5.4236156,-4.0015453,Au marché,
StopPoint:node:6903296481,5.423623,-4.0021714,A Gauche,
StopPoint:node:6903296482,5.4214359,-4.0037249,Makan Traoré,
StopPoint:node:6903347574,5.3286546,-3.9324706,Cocody Riviera M'badon,
StopPoint:node:6903347575,5.3293417,-3.9332266999999996,Nouveau marché,
StopPoint:node:6903347576,5.329969,-3.9339945999999997,Ancien marché,
StopPoint:node:6903347577,5.3307516999999995,-3.9350316999999997,Centre de santé Municipal de M'Badon,
StopPoint:node:6903347578,5.331008,-3.9352625999999997,La ferme,
StopPoint:node:6903347579,5.3354667,-3.9393933,Pharmacie,
StopPoint:node:6903347580,5.3384154,-3.9427407,2 poteaux,
StopPoint:node:6903347581,5.339948,-3.945032,Antenne,
StopPoint:node:6903347582,5.345935,-3.9457017,Carrefour Akouédo,
StopPoint:node:6903347583,5.3461517,-3.9471732999999998,École,
StopPoint:node:6903347584,5.3458217,-3.9505483,2ème rond-point,
StopPoint:node:6903370485,5.3503400999999995,-4.0227775999999995,Gare en haut,
StopPoint:node:6903374200,5.4210882,-4.0100339,Station,
StopPoint:node:6903374201,5.4196516,-4.00729,Immeuble Cercueil,
StopPoint:node:6903374202,5.4195595,-4.007456299999999,Immeuble Cercueil,
StopPoint:node:6903397403,5.4234507999999995,-3.9978515,Terminus mosquée Ado Kenedy,
StopPoint:node:6903397404,5.421577399999999,-3.9978488999999997,A l'école,
StopPoint:node:6903397405,5.419861699999999,-3.9979408999999997,,
StopPoint:node:6903397406,5.4185867,-3.9980282999999996,Dahico,
StopPoint:node:6903397407,5.4157689,-3.9992242,Étage Noir,
StopPoint:node:6903406997,5.415578,-4.0059533,Samake,
StopPoint:node:6903406998,5.415667099999999,-4.0037419,Eglise,
StopPoint:node:6903504058,5.415458,-4.0037763,Eglise,
StopPoint:node:6903504059,5.415650299999999,-4.0007588,Monastère,
StopPoint:node:6903504060,5.415433999999999,-4.0008192,Monastère,
StopPoint:node:6903504061,5.4157731,-3.9994029999999996,Étage Noir,
StopPoint:node:6903504062,5.4185995,-3.9981731999999996,Dahico,
StopPoint:node:6903525051,5.4339087,-4.027213199999999,Hôtel du centre,
StopPoint:node:6903525052,5.437374999999999,-4.0337387,A la Pompe,
StopPoint:node:6903525053,5.4377181,-4.036061699999999,Dépôt,
StopPoint:node:6903525054,5.4390604,-4.0445275,Anokoi,
StopPoint:node:6903525055,5.439303,-4.044482299999999,Anokoi,
StopPoint:node:6903525056,5.4423639999999995,-4.048014,Marahoué,
StopPoint:node:6903525057,5.4439581,-4.0487972,Agripac,
StopPoint:node:6903525058,5.447851099999999,-4.0510489,Terminus,
StopPoint:node:6903525059,5.447979699999999,-4.0508555,Terminus,
StopPoint:node:6903525060,5.4446544999999995,-4.0489498,Agripac,
StopPoint:node:6903525061,5.442501699999999,-4.0477433,Marahoué,
StopPoint:node:6903525062,5.437971699999999,-4.0360936999999995,Dépôt,
StopPoint:node:6903525063,5.4376377,-4.0338519999999995,A la Pompe,
StopPoint:node:6903525064,5.4367133,-4.030245,Marché de Nuit,
StopPoint:node:6903525065,5.4340417,-4.0268939999999995,Hôtel du centre,
StopPoint:node:6903525066,5.4217027,-4.0181394,Abobo Gare,
StopPoint:node:6903535584,5.3489387,-4.0206447,Complexe,
StopPoint:node:6903544086,5.350347999999999,-4.0224464,Gare en haut,
StopPoint:node:6903544087,5.3481387,-4.0180948,Maternité,
StopPoint:node:6903544088,5.3519133,-4.0140933,Adjamé Liberté,
StopPoint:node:6903544089,5.3547793,-4.0029137,2ème pont,
StopPoint:node:6903544090,5.3301187,-3.9339758999999996,Marché,
StopPoint:node:6903602207,5.426323099999999,-4.0203577,Gendarmerie,
StopPoint:node:6903602208,5.4298703999999995,-4.0233336,Mosquée Blanche,
StopPoint:node:6903602209,5.4332218999999995,-4.0262471,Solibra,
StopPoint:node:6903602210,5.4359152,-4.0288774,Château,
StopPoint:node:6903602211,5.4383387999999995,-4.0383071,A l'escalier,
StopPoint:node:6903602212,5.449791299999999,-4.0521369,PK 18 ancien marché,
StopPoint:node:6903602213,5.422047399999999,-4.0184782,Gare abobo,
StopPoint:node:6903602214,5.426046599999999,-4.0204341999999995,Gendarmerie,
StopPoint:node:6903602215,5.426524,-4.0208376,Gendarmerie Avant le Feu,
StopPoint:node:6903602216,5.4297276,-4.0236152,Mosquée Blanche,
StopPoint:node:6903602217,5.4330817,-4.0264367,Solibra,
StopPoint:node:6903602218,5.4357519,-4.0290698,Château,
StopPoint:node:6903602219,5.4365893,-4.030636299999999,Marché de Nuit,
StopPoint:node:6903602220,5.4381949999999994,-4.0392548,A l'escalier,
StopPoint:node:6903602221,5.4382833999999995,-4.0411411,Nouvelle Gare,
StopPoint:node:6903602222,5.4448006,-4.0493193,Agripac Avant le Feu,
StopPoint:node:6903602223,5.4493883,-4.0520966,Station Total,
StopPoint:node:6903602224,5.4499639,-4.052542,PK 18 ancien marché,
StopPoint:node:6903639366,5.3706298,-3.9761195,Attoban camp,
StopPoint:node:6903639367,5.3694267,-3.9776678,Escalier,
StopPoint:node:6903639368,5.3673899,-3.9794185,Pharmacie Saint Bernard,
StopPoint:node:6903639369,5.3658448,-3.9793174,Garage,
StopPoint:node:6903639370,5.365069,-3.9792552,Polyclinique Sacré-Coeur,
StopPoint:node:6903639371,5.3642087,-3.9790994,Jules ferry,
StopPoint:node:6903639372,5.362115,-3.9788028,Hôtel Manhatan,
StopPoint:node:6903639373,5.3589924,-3.978316,Doraville,
StopPoint:node:6903639374,5.3571667,-3.9780678,Pharmacie Saint ange,
StopPoint:node:6903639375,5.356275,-3.9777617,André Malraux,
StopPoint:node:6903639376,5.3505392,-4.0228250999999995,Gare en haut,
StopPoint:node:6903968407,5.3673437,-3.9797086999999998,Pharmacie Saint Bernard,
StopPoint:node:6903968408,5.3655779,-3.9794498,Carrefour garage,
StopPoint:node:6904171063,5.343795,-4.0345832999999995,Attécoubé Terminus 04,
StopPoint:node:6904171064,5.346448,-4.0345467,,
StopPoint:node:6904171065,5.349062399999999,-4.033957,Marché,
StopPoint:node:6904171066,5.3501256999999995,-4.0323329999999995,Station Afriquia,
StopPoint:node:6904171067,5.3524283,-4.0328135,Carrefour Attecoubé,
StopPoint:node:6904171068,5.3574167,-4.030971699999999,,
StopPoint:node:6904171070,5.3513557,-4.0254169,,
StopPoint:node:6904171071,5.3412757,-4.0261721999999995,Adjamé Santé,
StopPoint:node:6904171072,5.3381159,-4.0258069999999995,Institut National de la Santé Publique,
StopPoint:node:6904171073,5.3318344,-4.0230192,Arrêts tours Administratives,
StopPoint:node:6904171074,5.3266073,-4.0206007999999995,Cité financière Plateau,
StopPoint:node:6904171075,5.3237991,-4.0196512,SIB Alpha 2000,
StopPoint:node:6904171076,5.3206169,-4.0196681,Primature,
StopPoint:node:6904171077,5.3089287,-4.0157481,Résidence Cheick Yacouba Sylla,
StopPoint:node:6904171078,5.3094876,-4.0142576,Marché de Treichville,
StopPoint:node:6904171079,5.3109791,-4.0099697,,
StopPoint:node:6904171080,5.3126562999999996,-4.006092,Biafra,
StopPoint:node:6904171081,5.3076251,-3.9933398999999996,Banque Atlantique,
StopPoint:node:6904171082,5.3052787,-3.9888629,Hôtel Hamanieh,
StopPoint:node:6904171083,5.3043423,-3.9869873,Sainte Thérèse,
StopPoint:node:6904171084,5.3064580999999995,-3.9858380999999996,Commissariat du 9 ème,
StopPoint:node:6904188585,5.308809,-3.9839637999999997,Gare Marcory,
StopPoint:node:6905326498,5.359,-4.0282199,Gare Nord Adjamé,
StopPoint:node:6905326502,5.4332783,-4.0266433,,
StopPoint:node:6905326503,5.436626599999999,-4.0307925,Château,
StopPoint:node:6905326504,5.438006,-4.0384056,A l'escalier,
StopPoint:node:6905344262,5.3842341,-4.0219992,Préfecture de Police,
StopPoint:node:6905344263,5.437631199999999,-4.0355739,Arrêt Centre Bus,
StopPoint:node:6905344264,5.438464499999999,-4.0390169,Terminus 45 À l'escalier,
StopPoint:node:6905344265,5.4378844,-4.035139099999999,Arrêt Centre Bus,
StopPoint:node:6905344266,5.4365245,-4.0299553999999995,Château,
StopPoint:node:6905344267,5.432893099999999,-4.025968499999999,Arrêt,
StopPoint:node:6905344268,5.4285317,-4.0222533,Gendarmerie,
StopPoint:node:6905344273,5.3836467,-4.0219024,Préfecture de Police,
StopPoint:node:6905553518,5.4284566,-4.0225102,Gendarmerie,
StopPoint:node:6905553519,5.4327155,-4.026167399999999,,
StopPoint:node:6905719605,5.3485701,-4.0256884,Foire de Chine,
StopPoint:node:6905719606,5.3299376,-4.0206943,Église Méthodiste Unie de Côte d'Ivoire,
StopPoint:node:6905719607,5.3251345,-4.0201163,60 logements Plateau,
StopPoint:node:6905719608,5.3087593,-4.017755999999999,Hôpital du port,
StopPoint:node:6905719609,5.3097408,-4.0148458,Fédération Ivoirienne de Football,
StopPoint:node:6905719610,5.3073425,-4.0116929,Pharmacie du Rond-point,
StopPoint:node:6905719611,5.308965,-4.0070781,,
StopPoint:node:6905719612,5.3080275,-4.0054419999999995,Nanan Yamousso,
StopPoint:node:6905719613,5.3048828,-4.0043543,Paroisse Notre-Dame de Treichville,
StopPoint:node:6905719614,5.3045623,-4.0015648,Pharmacie de l'Entente,
StopPoint:node:6905719615,5.3055251,-3.9988289999999997,Marché de Belleville,
StopPoint:node:6905719616,5.3075214,-3.9931172,Banque Atlantique,
StopPoint:node:6905719617,5.3049722,-3.9887867999999997,Hôtel Hamanieh,
StopPoint:node:6905719618,5.3055778,-3.986118,Commissariat du 9éme,
StopPoint:node:6905719619,5.308097,-3.9847286,Station Shell,
StopPoint:node:6905719620,5.358496499999999,-4.0284151,,
StopPoint:node:6905719621,5.357702,-4.0304950999999996,,
StopPoint:node:6905719622,5.3515438,-4.0321715,Carrefour Attecoubé,
StopPoint:node:6905719623,5.348960099999999,-4.03386,Banque Atlantique,
StopPoint:node:6905719624,5.347110799999999,-4.0344245999999995,Commissariat du 10ᵉ arrondissement,
StopPoint:node:6905719625,5.3437946,-4.0344802,Attécoubé Terminus 04,
StopPoint:node:6905772459,5.325160299999999,-4.0219475,Saint Paul,
StopPoint:node:6905772460,5.3282245,-4.0239746,Immeuble Sogephia Hévéa,
StopPoint:node:6905772461,5.3337809,-4.0245112999999995,Musée du Plateau,
StopPoint:node:6905772464,5.4363532999999995,-4.0204417,Impôts,
StopPoint:node:6905772466,5.4383593,-4.0160545999999995,Cours Sociaux,
StopPoint:node:6905842302,5.4306274,-4.020108,,
StopPoint:node:6905842305,5.359002299999999,-4.0275639,Gare Nord Adjamé,
StopPoint:node:6905842307,5.3252327,-4.0224693,Long Champs,
StopPoint:node:6906463287,5.293874,-3.9560101999999997,Gare Koumassi,
StopPoint:node:6906463288,5.2928524,-3.9602508,Pharmacie Ehilie,
StopPoint:node:6906463289,5.2913568,-3.966735,Mosquée,
StopPoint:node:6906463290,5.2956714,-3.980944,Échangeur de Marcory,
StopPoint:node:6906463291,5.2997216,-3.9882986,Grand carrefour de Marcory,
StopPoint:node:6906463292,5.2998183999999995,-3.9976917,,
StopPoint:node:6906463293,5.2999472999999995,-4.0025987999999995,Gare de Bassam,
StopPoint:node:6906463294,5.3018702,-4.0032814,Ecobank,
StopPoint:node:6906463296,5.3534011999999995,-4.0155251,Adjamé Liberté,
StopPoint:node:6906507833,5.436589199999999,-4.0124238,BICICI,
StopPoint:node:6906575629,5.3546594,-4.0164466999999995,Adjamé - Liberté,
StopPoint:node:6906575630,5.3631417,-4.0169033,Williams-Ville,
StopPoint:node:6906575631,5.365819699999999,-4.0157829,Carrefour 2 plateaux,
StopPoint:node:6906575632,5.3662557,-4.0156117,,
StopPoint:node:6906575633,5.3716139,-4.0122292999999996,Paillet,
StopPoint:node:6906575634,5.3740689999999995,-4.0112578,,
StopPoint:node:6906575635,5.3898833,-4.005605,,
StopPoint:node:6906575636,5.4045622,-4.0065311,,
StopPoint:node:6906575637,5.4113412,-4.0064187,,
StopPoint:node:6906575638,5.4126483,-4.0064133,ANADER,
StopPoint:node:6906590689,5.4148754,-4.0064263,Samake,
StopPoint:node:6906590691,5.41527,-4.0068417,Samake,
StopPoint:node:6906590692,5.4101482999999995,-4.0063151999999995,Chaîne avion,
StopPoint:node:6906590693,5.4073533,-4.0063867,1ere Boutique,
StopPoint:node:6906590694,5.3659384,-4.0155634,Carrefour 2 plateaux,
StopPoint:node:6906590695,5.3546002,-4.0162927,Adajmé Liberté,
StopPoint:node:6906596960,5.3534513,-4.0155256999999995,Adjamé Liberté,
StopPoint:node:6906596961,5.3100359,-4.006088399999999,Nanan Yamousso,
StopPoint:node:6906596962,5.3054676999999995,-4.0044435,Karwil,
StopPoint:node:6906596963,5.3031308,-4.0036369,Notre-dame,
StopPoint:node:6906596964,5.30038,-4.0026082,Gare de Bassam,
StopPoint:node:6906596965,5.2998444,-3.9983918,Collège Moderne Autoroute,
StopPoint:node:6906596966,5.2987234,-3.9859636999999997,Cap Sud,
StopPoint:node:6906596967,5.2959919,-3.9810298,Échangeur de Marcory,
StopPoint:node:6906596968,5.2912433,-3.9675637999999998,Auto-école,
StopPoint:node:6906596969,5.2919737,-3.9644939999999997,,
StopPoint:node:6906596970,5.292783,-3.9610540999999997,Boulangerie,
StopPoint:node:6906699462,5.3790616,-4.0069935999999995,ZOO,
StopPoint:node:6906699463,5.4074152,-4.0065336,1ere Boutique,
StopPoint:node:6906699464,5.372398899999999,-4.0116794,Paillet,
StopPoint:node:6906699465,5.389897899999999,-4.0054621,,
StopPoint:node:6906699466,5.396764699999999,-4.0065121999999995,Arrêt Dokui,
StopPoint:node:6906699467,5.396868899999999,-4.0063445,Arrêt Dokui,
StopPoint:node:6906699468,5.4121402,-4.0062842,ANADER,
StopPoint:node:6906699469,5.4169293,-4.0106347,,
StopPoint:node:6906699470,5.4170815,-4.0106158999999995,,
StopPoint:node:6906699471,5.4197017,-4.0159367999999995,Abobo Mairie,
StopPoint:node:6906699472,5.419751199999999,-4.0156192,Abobo Mairie,
StopPoint:node:6907121506,5.3675641,-4.0235294,Gare Williamsville,
StopPoint:node:6907121507,5.3658243,-4.020703699999999,Mosquée,
StopPoint:node:6907121508,5.3643529,-4.0189161,Croix Bleue,
StopPoint:node:6907121509,5.3576606,-4.0160715,Agban avant le pont,
StopPoint:node:6907121510,5.3501391,-4.0169929,Pharmacie le Belier,
StopPoint:node:6907121511,5.3417335999999995,-4.0230855,Indenié,
StopPoint:node:6907121512,5.3220152,-4.018503,Mairie du Plateau,
StopPoint:node:6907121513,5.3219502,-4.0170059,Institut Français,
StopPoint:node:6907121514,5.3195011999999995,-4.0144649,CNPS,
StopPoint:node:6907121515,5.308887599999999,-3.9840511999999997,Gare Marcory,
StopPoint:node:6907141795,5.3422089999999995,-4.0033579,RTI,
StopPoint:node:6907141796,5.3459837,-4.0029046,Archibat,
StopPoint:node:6907141797,5.3356901,-4.0007896999999994,Marché de Cocody,
StopPoint:node:6907141798,5.3232894,-4.0021679,Gare Blockauss,
StopPoint:node:6907141799,5.3278237,-4.0013589,Banque Mondiale,
StopPoint:node:6907141800,5.3355267,-4.0007635,Marché de Cocody,
StopPoint:node:6907141801,5.338417199999999,-4.0038072,CIE,
StopPoint:node:6907141802,5.3517449,-4.0021895999999995,Palm Club,
StopPoint:node:6907141803,5.3587491,-4.0274510999999995,Gare Nord,
StopPoint:node:6907147644,5.354368099999999,-4.0180283,Texaco,
StopPoint:node:6907147645,5.3478734999999995,-4.0101289,Pont lycée technique,
StopPoint:node:6907147646,5.344280599999999,-4.0038018,SODEMI,
StopPoint:node:6907147647,5.3404792,-4.0033259,Sgbci,
StopPoint:node:6907147648,5.336444,-3.9999757,Marché de Cocody,
StopPoint:node:6907147649,5.3334363,-4.0003179,PMI,
StopPoint:node:6907147650,5.3280617,-4.00118,Banque mondiale,
StopPoint:node:6907147651,5.323287,-4.0020444,Gare Blockauss,
StopPoint:node:6907154300,5.3528511,-4.0168481,Boulangerie Top baquette,
StopPoint:node:6907154301,5.3472776,-4.0171551999999995,220 logements,
StopPoint:node:6907157792,5.3590488999999994,-4.0273952,Gare Nord,
StopPoint:node:6907157793,5.356014699999999,-4.0214191,Renault,
StopPoint:node:6907157794,5.3535029,-4.0157929999999995,Adjamé Liberté,
StopPoint:node:6907157795,5.339614999999999,-4.0005869999999994,CERAP - INADES,
StopPoint:node:6908599212,5.3464621,-3.9946557,Gare Campus Cocody,
StopPoint:node:6908599213,5.343718,-4.001318599999999,ISTC,
StopPoint:node:6908599215,5.4354971999999995,-4.0153091,Gare Abobo Sogephia,
StopPoint:node:6908618074,5.3456864,-3.9968975999999996,INSAAC,
StopPoint:node:6908618077,5.427395,-4.016795,EPV Konaté,
StopPoint:node:6908618078,5.4286546,-4.014761099999999,Lycée Moderne d'Abobo,
StopPoint:node:6908728765,5.4339702999999995,-4.012329,,
StopPoint:node:6908728766,5.432656,-4.013431,,
StopPoint:node:6908728767,5.4273213,-4.0162121,,
StopPoint:node:6908728771,5.343821,-4.0008199,ISTC,
StopPoint:node:6908728772,5.3462119,-3.9937237999999997,Gare Campus Cocody,
StopPoint:node:6908782549,5.43182,-4.0147115,,
StopPoint:node:6908782550,5.429723,-4.014638,,
StopPoint:node:6908782552,5.3450486999999995,-3.9978675999999997,Cité des Arts,
StopPoint:node:6908782553,5.3466283,-3.9938949999999998,université méthodiste de Côte D'Ivoire,
StopPoint:node:6908914485,5.357415,-4.0160582,,
StopPoint:node:6908914486,5.3491257,-4.0171632,Cours socio éducatif,
StopPoint:node:6908914487,5.3082112,-3.9996571,Piscine d’État de Treichville,
StopPoint:node:6908914488,5.3090397,-3.9839441,Gare Marcory,
StopPoint:node:6908914489,5.3555535999999995,-4.0161239,Boulangerie Top Qualité,
StopPoint:node:6908914490,5.3513262,-4.0170747,Liberté,
StopPoint:node:6908914491,5.3503722,-4.0170975,Pharmacie le Belier,
StopPoint:node:6908914492,5.3418578,-4.0232535,Indenié,
StopPoint:node:6908914493,5.3421743,-4.025647,Banque SIB,
StopPoint:node:6908914494,5.321186,-4.0183783,Bicici plateau,
StopPoint:node:6908914495,5.321624,-4.0167836999999995,Pyramide,
StopPoint:node:6908914496,5.3184312,-4.0145266,Siège Moov,
StopPoint:node:6908914498,5.3641726,-4.018866399999999,Croix Bleue,
StopPoint:node:6908914499,5.3653249,-4.0202826,Infirmerie Sinikeya,
StopPoint:node:6908914500,5.3670874,-4.0235066,Gare Williamsville,
StopPoint:node:6909039462,5.3589877,-4.0318263,Petro Ivoire,
StopPoint:node:6909039464,5.3468602999999995,-4.0257324,Pharmacie Sainte Marie,
StopPoint:node:6909039468,5.3080107,-4.0159499,Cité Policière,
StopPoint:node:6909039469,5.2958623,-4.0046789,CHU,
StopPoint:node:6909039470,5.2928257,-3.9984382,Technibat,
StopPoint:node:6909039471,5.2914767,-3.9957266999999996,Africauto,
StopPoint:node:6909108442,5.3585383,-4.0375583,Terminus Cité Fairmont,
StopPoint:node:6909108450,5.3049534,-4.0148597,arrêt,
StopPoint:node:6909108451,5.29123,-3.9902016999999996,Services Techniques du District,
StopPoint:node:6909108453,5.308817599999999,-3.9840337,Gare Marcory,
StopPoint:node:6909121487,5.308818,-3.9840342,Gare Marcory,
StopPoint:node:6909208699,5.297125599999999,-4.0074831,Parc des Sports,
StopPoint:node:6909208700,5.2895319999999995,-3.9907863999999997,SIYOA - Boulevard de Marseille,
StopPoint:node:6909225529,5.361879999999999,-4.0724972,,
StopPoint:node:6909225530,5.3647534,-4.074565199999999,,
StopPoint:node:6909225531,5.374116,-4.0958163,Dépôt Yopougon zone Industrielle,
StopPoint:node:6909225533,5.3728155,-4.0962589,,
StopPoint:node:6909225534,5.3742348,-4.0896419,,
StopPoint:node:6909225535,5.3727219999999996,-4.0867558,Nestlé,
StopPoint:node:6909225536,5.3745633,-4.0781781,,
StopPoint:node:6909225537,5.370393399999999,-4.0796760999999995,,
StopPoint:node:6909225538,5.3683786,-4.078674299999999,,
StopPoint:node:6909225539,5.3670367,-4.0761986,Direction de la Sotra,
StopPoint:node:6909225540,5.3628133,-4.0736156999999995,,
StopPoint:node:6909225541,5.3612471,-4.0702482,,
StopPoint:node:6909225542,5.362301899999999,-4.067870399999999,Lycée Moderne Yopougon Andokoi,
StopPoint:node:6909225543,5.3615148,-4.0667894,Centre Ivoire Couture,
StopPoint:node:6909225544,5.3585484,-4.0278558,Gare Nord SOTRA Adjamé,
StopPoint:node:6909225545,5.3147082999999995,-4.0182968,Gare Sud,
StopPoint:node:6909237619,5.2948194,-4.0033954,Terminus C.H.U. Treichville,
StopPoint:node:6909237622,5.301826999999999,-3.9881325999999997,Délices de France,
StopPoint:node:6909237623,5.2913004,-3.9900510999999996,Services Techniques du District,
StopPoint:node:6909237624,5.2931333,-3.9994307,TechniBat,
StopPoint:node:6909237625,5.3023437,-4.0141222999999995,Quincaillerie Générale,
StopPoint:node:6909237626,5.304928299999999,-4.0150317,Arrêt,
StopPoint:node:6909237627,5.308109,-4.0161831999999995,Cité Policière,
StopPoint:node:6909237631,5.3590805999999995,-4.0279595,Gare Nord,
StopPoint:node:6909237632,5.3588759999999995,-4.031996299999999,Station Petro Ivoire,
StopPoint:node:6909237633,5.3582206,-4.0364602,Terminus 02 Cité Fairmont,
StopPoint:node:6909430718,5.3764726,-4.0940715,,
StopPoint:node:6909430719,5.3511312,-4.0255222999999996,,
StopPoint:node:6909430720,5.3618706,-4.0668847,Gare CTE,
StopPoint:node:6909430721,5.3621938,-4.0678369,Lycée Moderne Yopougon Andokoi,
StopPoint:node:6909430722,5.3607938,-4.0710622,Station Total,
StopPoint:node:6909430723,5.362381999999999,-4.0736571999999995,,
StopPoint:node:6909430724,5.365409,-4.0742996,,
StopPoint:node:6909430725,5.36707,-4.0764347,Direction de la Sotra,
StopPoint:node:6909430726,5.3683719,-4.0788861999999995,,
StopPoint:node:6909430727,5.3690582,-4.080222,Station,
StopPoint:node:6909430728,5.369924699999999,-4.0819076999999995,,
StopPoint:node:6909430729,5.3740706,-4.089625799999999,JOMACO,
StopPoint:node:6909430730,5.3741787,-4.0957949,Dépôt Yopougon zone Industrielle,
StopPoint:node:6909521603,5.2645534,-3.9848298,Hôpital Municipal,
StopPoint:node:6909521604,5.2632614,-3.9834323,École Maternelle,
StopPoint:node:6909521605,5.257664999999999,-3.9849267,CIE,
StopPoint:node:6909521606,5.2558751,-3.9956283,arrêt,
StopPoint:node:6909521607,5.2636493,-3.9989168,Gestoci,
StopPoint:node:6909521608,5.2704314,-4.0062621,Pont de Vridi,
StopPoint:node:6909521609,5.297804999999999,-4.0143461,"Etablissements Rey, Port",
StopPoint:node:6909521610,5.3005436,-4.0175241,Sicodis,
StopPoint:node:6909521611,5.305037,-4.0231458,Terminus 32,
StopPoint:node:6909521612,5.3069377,-4.0211629,Grand Moulin Abidjan,
StopPoint:node:6909521613,5.3088247,-4.0179278,Hôpital du Pont,
StopPoint:node:6909521614,5.3056109,-4.0117403,"Avenue 11, Rue 12, Treichville",
StopPoint:node:6909521615,5.3039938,-4.0111588,"Avenue 15, Rue 12, Treichville",
StopPoint:node:6909521616,5.3040254,-4.0034158,Paroisse Notre Dame,
StopPoint:node:6909521617,5.305657399999999,-3.9987874,Marché Belleville,
StopPoint:node:6909521620,5.3087329,-3.9838891999999997,Gare Marcory INJS,
StopPoint:node:6909546905,5.266603,-3.9871428,Gendarmerie,
StopPoint:node:6909546906,5.259526,-3.9818252,Pharmacie Vridi Port,
StopPoint:node:6909546907,5.257053399999999,-3.9892024,Stade de la SIR,
StopPoint:node:6909546908,5.2588047,-3.9979291,Vridi-Iran,
StopPoint:node:6909546909,5.2676365,-4.0031726999999995,Station Shell,
StopPoint:node:6909546910,5.277976,-4.008549599999999,PALM-CI,
StopPoint:node:6909546911,5.2821643,-4.0084685,Bolloré,
StopPoint:node:6909546912,5.2864977,-4.008455,Siège SOTRA,
StopPoint:node:6909546913,5.2922709999999995,-4.008424,Arrêt,
StopPoint:node:6909546914,5.296841,-4.013152799999999,Ciment Bélier,
StopPoint:node:6909546915,5.3029572,-4.0212721,Port Autonome Abidjan,
StopPoint:node:6909546916,5.309804,-4.0149741,FIF,
StopPoint:node:6909546917,5.3059215,-4.0050815,Collège Bosco,
StopPoint:node:6909707221,5.3226268,-4.1045,Niangon Sud à droite,
StopPoint:node:6909707223,5.3233679,-4.1057378,Carrefour Académie,
StopPoint:node:6909707224,5.325714,-4.105934899999999,Caféier,
StopPoint:node:6909707225,5.3311608,-4.1037342,Lubafrique,
StopPoint:node:6909707226,5.3338915,-4.1029765,2ème arrêt ANADOR,
StopPoint:node:6909707227,5.3358783999999995,-4.1014047,Anador,
StopPoint:node:6909707228,5.3404237,-4.1004632,Pharmacie Cité Maroc,
StopPoint:node:6909707229,5.3407013999999995,-4.0892462,CIE,
StopPoint:node:6909707230,5.3450164,-4.0892456,,
StopPoint:node:6909707231,5.348131599999999,-4.0875008,Grand Centre,
StopPoint:node:6909707232,5.3540741999999995,-4.0874934,Port-Bouët II,
StopPoint:node:6909707233,5.3561103999999995,-4.0851103,,
StopPoint:node:6909707234,5.3604416,-4.0850861,,
StopPoint:node:6909707236,5.3589211,-4.0277665,Gare Nord,
StopPoint:node:6909707238,5.3147705,-4.0183668,Gare Sud,
StopPoint:node:6909737821,5.3058324,-4.0049374,Feu du Collège Bosco,
StopPoint:node:6909737822,5.3062141,-4.0120606,"Avenue 10, Rue 12, Treichville",
StopPoint:node:6909737824,5.3067385,-4.0212121,Grand Moulin Abidjan,
StopPoint:node:6909737825,5.3033621,-4.021728599999999,Siège Port Autonome Abidjan,
StopPoint:node:6909737826,5.2945614,-4.0095509,Port Autonome Abidjan,
StopPoint:node:6909737827,5.2878677,-4.0082981,Siège SOTRA,
StopPoint:node:6909737828,5.2820276999999995,-4.0083516,Bolloré,
StopPoint:node:6909737829,5.2787,-4.00841,MOVIS,
StopPoint:node:6909737830,5.2705271,-4.0061063,Pont de Vridi,
StopPoint:node:6909812227,5.3309364,-4.0239787,Cité Administrative,
StopPoint:node:6909812228,5.3572641,-4.0849641,Carrefour Zone,
StopPoint:node:6909812229,5.355256499999999,-4.0867444,,
StopPoint:node:6909812230,5.3469666,-4.0880982999999995,Pharmacie Port-Bouët II,
StopPoint:node:6909812231,5.3453455,-4.0891591,,
StopPoint:node:6909812232,5.3400137999999995,-4.0974297,Mosquée du Maroc,
StopPoint:node:6909812233,5.3401847,-4.1003975,Pharmacie Cité Maroc,
StopPoint:node:6909812234,5.3358609999999995,-4.1013081,Anador,
StopPoint:node:6909812235,5.3305492,-4.103812,Lubafrique,
StopPoint:node:6909812236,5.3273952,-4.1051263,,
StopPoint:node:6909812237,5.32569,-4.1058531,Caféier,
StopPoint:node:6909812238,5.3226401,-4.1045248,Niangon Sud à droite,
StopPoint:node:6909923471,5.3568101,-4.0739979,Siporex-Sicomex,
StopPoint:node:6909923472,5.3538004,-4.074004599999999,Siporex avant le feu,
StopPoint:node:6909923473,5.3448074,-4.0732897999999995,William-Ponty,
StopPoint:node:6909923474,5.3388868,-4.0732871,Yopougon 16ème Advans,
StopPoint:node:6909923475,5.3326109,-4.0733247,Saguidiba,
StopPoint:node:6909923477,5.3297734,-4.0735526,Gare Yopougon Kouté,
StopPoint:node:6910224899,5.3463096,-3.9936456,Gare Campus Cocody,
StopPoint:node:6910224902,5.3297134,-4.0738578,Gare Yopougon Kouté,
StopPoint:node:6910224905,5.3315586999999995,-4.0735190999999995,Saguidiba,
StopPoint:node:6910224906,5.3344863,-4.0734252,Côte d'Ivoire-Telecom,
StopPoint:node:6910224907,5.338833999999999,-4.0734096,Yopougon 16ème Advans,
StopPoint:node:6910224908,5.3418778,-4.0734078,Saint André lavage,
StopPoint:node:6910224909,5.345666,-4.0734037999999995,William-Ponty,
StopPoint:node:6910224910,5.3540928,-4.074188299999999,Siporex après le feu,
StopPoint:node:6910224911,5.3566819,-4.074177199999999,Siporex-Sicomex,
StopPoint:node:6910272309,5.2677907,-4.0030991,Station Shell,
StopPoint:node:6910272310,5.2588726,-3.9977641,Vridi-Iran,
StopPoint:node:6910272311,5.2565075,-3.9932472999999997,"SIR, Vridi",
StopPoint:node:6910272312,5.257788199999999,-3.9854581999999996,CIE,
StopPoint:node:6910272313,5.2582659,-3.9824273,Cité CIE,
StopPoint:node:6910272314,5.2600530999999995,-3.9820027999999996,Temple des Vainqueurs,
StopPoint:node:6910272315,5.2644760999999995,-3.9850263,Hôpital Municipal,
StopPoint:node:6910272316,5.2666716,-3.9874094999999996,Terminus 07 Vridi Cité,
StopPoint:node:6910518025,5.3313223,-4.0228166,Cité Administrative,
StopPoint:node:6910584802,5.426785199999999,-4.0201529,Gendarmerie Abobo,
StopPoint:node:6910703473,5.350955,-4.0632851,Institut des aveugles,
StopPoint:node:6910703474,5.3476916,-4.0632757999999995,Bel Air,
StopPoint:node:6910703475,5.3418057,-4.0622364,Complexe sportif de Yopougon,
StopPoint:node:6910703476,5.3380456,-4.0622136,Nouveau quartier,
StopPoint:node:6910703477,5.3333961,-4.0621975,Clinique les Oliviers,
StopPoint:node:6910743309,5.3292753,-4.0613687,Terminus 85,
StopPoint:node:6910743310,5.333826,-4.062382599999999,Clinique les Oliviers,
StopPoint:node:6910743311,5.3375141,-4.0623477,Nouveau quartier,
StopPoint:node:6910743312,5.3460439,-4.0634635,Bel Air,
StopPoint:node:6910743313,5.355664399999999,-4.0660061999999995,Sable,
StopPoint:node:6910743314,5.3513983,-4.063447399999999,Institut des aveugles,
StopPoint:node:6910755171,5.3237979,-4.0804794,Ben,
StopPoint:node:6910755172,5.3255979,-4.0764964,Marejea,
StopPoint:node:6910755173,5.3255738,-4.0718266,Iris3,
StopPoint:node:6910755174,5.319872,-4.0801764,Terminus 42 Yopougon,
StopPoint:node:6910755176,5.3242746,-4.0667291,Marché Kouté,
StopPoint:node:6910755177,5.3236042,-4.0615042,L'usine du camp,
StopPoint:node:6910755178,5.3236336,-4.057731599999999,Stenb,
StopPoint:node:6910755179,5.3222355,-4.0535084999999995,Le petit soleil,
StopPoint:node:6910755180,5.3222195,-4.0505286,Groupe Escom,
StopPoint:node:6910755181,5.322239499999999,-4.046458299999999,La faveur,
StopPoint:node:6910755182,5.3198693,-4.043974599999999,Pharmacie Chenain,
StopPoint:node:6910755183,5.3171339,-4.0439826,Iris 3,
StopPoint:node:6910755184,5.3137348,-4.0440027,Bon choix,
StopPoint:node:6910794085,5.3095585,-4.0439545,Santé Village,
StopPoint:node:6910794088,5.3101983,-4.0353389,Gare Abobodoumé,
StopPoint:node:6910797790,5.4258812,-4.01971,Arrêt,
StopPoint:node:6910797791,5.4182684,-4.0128435,Arrêt,
StopPoint:node:6910797792,5.4156089,-4.0054353,Arrêt,
StopPoint:node:6910797793,5.4155902,-3.999584,Arrêt,
StopPoint:node:6910797794,5.4038607,-3.9856156,Termunis 81/82,
StopPoint:node:6910797795,5.4031253999999995,-3.9792072999999997,BICICI,
StopPoint:node:6910797796,5.4011881,-3.9780821,Arrêt,
StopPoint:node:6910797797,5.3988302,-3.9776878,Arrêt,
StopPoint:node:6910797798,5.396342799999999,-3.977036,Arrêt,
StopPoint:node:6910797799,5.3932465999999994,-3.9761992,Arrêt,
StopPoint:node:6910797800,5.3946558,-3.971504,Arrêt,
StopPoint:node:6910797801,5.4000986,-3.9649834999999998,Cité Diaspora,
StopPoint:node:6910797802,5.4025338,-3.9621641999999997,SOCIAM,
StopPoint:node:6910797803,5.402296499999999,-3.9620463,SOCIAM,
StopPoint:node:6910797804,5.399963,-3.9570893,CHU Angré,
StopPoint:node:6910797805,5.4154526999999995,-4.0022782999999995,Arrêt,
StopPoint:node:6910797806,5.3997812,-3.9570173,CHU Angré,
StopPoint:node:6910797807,5.4003923,-3.9592422999999997,Arrêt,
StopPoint:node:6910797808,5.4011774,-3.960527,Arrêt,
StopPoint:node:6910797809,5.3991713,-3.9657399,Arrêt,
StopPoint:node:6910797810,5.3964463,-3.9689626,Arrêt,
StopPoint:node:6910797811,5.3933681,-3.9736087999999996,Arrêt,
StopPoint:node:6910797812,5.3929368,-3.9754414999999996,Arrêt,
StopPoint:node:6910797813,5.395482299999999,-3.9769683,Arrêt,
StopPoint:node:6910797814,5.3963101,-3.9772754,Arrêt,
StopPoint:node:6910797815,5.400356899999999,-3.9781552,Arrêt,
StopPoint:node:6910797816,5.4022415,-3.978471,Arrêt,
StopPoint:node:6910797817,5.402950499999999,-3.9794533999999997,BICICI,
StopPoint:node:6910797818,5.404251599999999,-3.9898295,Arrêt,
StopPoint:node:6910797819,5.4070126,-3.9911934,Saint Ambroise,
StopPoint:node:6910797820,5.4103992,-3.9941237,Arrêt,
StopPoint:node:6910797821,5.4136035,-3.9953287,Arrêt,
StopPoint:node:6912410269,5.3317315,-4.0043771999999995,Lycée Classique d'Abidjan,
StopPoint:node:6912410270,5.3286967999999995,-4.0047695,Hotel Ivoire 2,
StopPoint:node:6912410271,5.327880599999999,-4.0029870999999995,Hotel Ivoire,
StopPoint:node:6912410272,5.3277329,-4.0032565,Hotel Ivoire,
StopPoint:node:6912410273,5.3327048999999995,-4.0045047,Lycée Classique d'Abidjan,
StopPoint:node:6912410274,5.3439798,-4.0037107999999995,SODEMI,
StopPoint:node:6912410275,5.3477876,-4.0095505,Pont lycée technique,
StopPoint:node:6912654329,5.3291458,-4.0750909,Carrefour Express,
StopPoint:node:6912729876,5.358125299999999,-4.0012691,BMW,
StopPoint:node:6912729877,5.3601195,-3.998725,SOCITECH,
StopPoint:node:6912729878,5.3648147999999996,-3.9976353999999996,MACACI,
StopPoint:node:6912729879,5.367356,-3.9983993,Mobil 2 Plateaux,
StopPoint:node:6912729880,5.371804699999999,-3.9984268,Sococé 2 Plateaux,
StopPoint:node:6912729881,5.374547799999999,-3.9985198,BOA,
StopPoint:node:6912729882,5.3755833,-3.9985337999999997,SNEDAI,
StopPoint:node:6912729883,5.3776569,-3.9976312,Carrefour Duncan,
StopPoint:node:6912729884,5.3809527,-3.9943103,Las Palmas,
StopPoint:node:6912805206,5.338820699999999,-4.0792393,Pharmacie du Marché,
StopPoint:node:6912805207,5.3373257999999995,-4.0765581,,
StopPoint:node:6912805208,5.338406099999999,-4.0752894,Patisserie,
StopPoint:node:6912805209,5.3467623,-4.0652525,Ex Chaine Avion Rue Princesse,
StopPoint:node:6912805210,5.3408188999999995,-4.059997399999999,Camp FRCI,
StopPoint:node:6912805211,5.3398829,-4.0572314,,
StopPoint:node:6912805212,5.3373205,-4.0549944,Carrefour Lama Fofana,
StopPoint:node:6912805213,5.3337105,-4.0550185999999995,Banque Atlantique,
StopPoint:node:6912805214,5.3316574999999995,-4.052065499999999,Offoumou Yapo,
StopPoint:node:6912805215,5.329339399999999,-4.0497521,Tizra,
StopPoint:node:6912805216,5.3264792,-4.0494691,,
StopPoint:node:6912805217,5.3247298999999995,-4.0494999,,
StopPoint:node:6912805219,5.3104606,-4.0354465,Gare Abobo Doumé,
StopPoint:node:6912820385,5.3847656,-3.9932407,Carrefour Opéra,
StopPoint:node:6912820386,5.3888111,-3.9927523,Mahikari,
StopPoint:node:6912820387,5.3926338,-3.992269,Ambassade de Chine,
StopPoint:node:6912820388,5.394215399999999,-3.9921140999999998,Les Oscars,
StopPoint:node:6912820389,5.3964545,-3.9918229999999997,BHCI,
StopPoint:node:6912820390,5.4005168999999995,-3.9914408,Shawarma House,
StopPoint:node:6912820391,5.4038172,-3.9909124,Petro Ivoire,
StopPoint:node:6912820392,5.4042033,-3.9882535,Notre Dame,
StopPoint:node:6912820393,5.4034748,-3.9819806,FIRDA,
StopPoint:node:6912820394,5.4033098,-3.9765606,"Ancien Terminus 90, Les Arcades",
StopPoint:node:6912820395,5.4006902,-3.9728353999999997,Soleil 2,
StopPoint:node:6912820396,5.3971938999999995,-3.9694727,Clinique Médicale Sainte Justine,
StopPoint:node:6912820397,5.3998522,-3.9648828999999997,Cité Diaspora,
StopPoint:node:6912820398,5.3972237,-3.9697282,Clinique Médicale Sainte Justine,
StopPoint:node:6912820399,5.4031598,-3.9764212999999997,"Ancien Terminus 90, Les Arcades",
StopPoint:node:6912820400,5.4033207999999995,-3.9820585,FIRDA,
StopPoint:node:6912820401,5.4037771999999995,-3.9856792999999997,Termunis 81/82,
StopPoint:node:6912820402,5.4041375,-3.9887433999999997,Notre Dame,
StopPoint:node:6912820403,5.4037567,-3.9906881999999997,Petro Ivoire,
StopPoint:node:6912820404,5.400296099999999,-3.9911377,Carrefour 22è,
StopPoint:node:6912820405,5.3965825,-3.9915941,BHCI,
StopPoint:node:6912820406,5.3925854,-3.9920934,Ambassade de Chine,
StopPoint:node:6912820407,5.3895653999999995,-3.9924668,Mahikari,
StopPoint:node:6912820408,5.3845481,-3.9930996,Opéra,
StopPoint:node:6912820409,5.3809502,-3.9940545999999997,Las Palmas,
StopPoint:node:6912820410,5.3779505,-3.9970643999999997,Carrefour Duncan,
StopPoint:node:6912820411,5.375347199999999,-3.9983567,Le Roi du Pain,
StopPoint:node:6912820412,5.3725252,-3.9983399,Sococé 2 Plateaux,
StopPoint:node:6912820413,5.3677225,-3.9981432,Mobil 2 Plateaux,
StopPoint:node:6912820414,5.3654376,-3.9973647999999997,MACACI,
StopPoint:node:6912820415,5.3574699,-4.001239099999999,Saint Jacques,
StopPoint:node:6912820416,5.3525544,-4.0018639,Palm Club,
StopPoint:node:6912820417,5.3493692,-4.0022742,Carrefour la Vie,
StopPoint:node:6912820418,5.344562,-4.0028093,Arrêt,
StopPoint:node:6913011676,5.326607399999999,-4.0255437999999995,Sitarail,
StopPoint:node:6913011677,5.3293875,-4.073499,Gare Yopougon Kouté,
StopPoint:node:6913190443,5.3134744,-4.0441328,,
StopPoint:node:6913190444,5.308711199999999,-4.043768,Santé Village,
StopPoint:node:6913190445,5.3166799,-4.0440879,,
StopPoint:node:6913190446,5.3208014,-4.0441167,,
StopPoint:node:6913190447,5.3221153999999995,-4.0468310999999995,,
StopPoint:node:6913190448,5.323918,-4.049644799999999,,
StopPoint:node:6913190449,5.3270840999999995,-4.0503167,Commissariat de Police du 19ᵉ Arrondissement,
StopPoint:node:6913190450,5.329579799999999,-4.0501732,Tizra,
StopPoint:node:6913190451,5.3313998,-4.0519957,Offoumou Yapo,
StopPoint:node:6913190452,5.3337753,-4.0550937,La Poste,
StopPoint:node:6913190453,5.3369773,-4.055092999999999,Pharmacie Sacré-cœur,
StopPoint:node:6913190454,5.3401473,-4.058547,Pharmacie Béatitude,
StopPoint:node:6913190455,5.340736199999999,-4.0608235,Nouveau quartier,
StopPoint:node:6913190456,5.346616699999999,-4.0650474,Ex Chaine Avion Rue Princesse,
StopPoint:node:6913190457,5.3447353,-4.0678006,Newton,
StopPoint:node:6913190458,5.3395304,-4.0745628,Marche Sicogi,
StopPoint:node:6913190459,5.337992799999999,-4.0751928,Patisserie,
StopPoint:node:6913190460,5.3372573999999995,-4.0770330999999995,Pharmacie du Marché,
StopPoint:node:6913190461,5.3372711,-4.0806585,Terrain Sogefiha,
StopPoint:node:6913201897,5.333541599999999,-4.0733125999999995,Antenne,
StopPoint:node:6913201898,5.3290163,-4.0757574,Kbine Bleu,
StopPoint:node:6913201899,5.3242598999999995,-4.080112,Akadjoba,
StopPoint:node:6913201900,5.323919399999999,-4.0871835999999995,Saint Pierre,
StopPoint:node:6913201901,5.3233739,-4.0925668,EPP Niangon,
StopPoint:node:6913201902,5.3197171,-4.0944323,Arrêt,
StopPoint:node:6913201903,5.316370099999999,-4.0947904,Arrêt,
StopPoint:node:6913201904,5.3152357,-4.092899399999999,Arrêt Yop 38,
StopPoint:node:6913201907,5.315995,-4.090033399999999,Terminus 27,
StopPoint:node:6913201908,5.3150642999999995,-4.0934497,Arrêt,
StopPoint:node:6913201909,5.3172602,-4.0948509,EPP SICOGI Niangon Sud,
StopPoint:node:6913201910,5.3202551,-4.0943198999999995,Carrefour Marché,
StopPoint:node:6913201911,5.3233885,-4.0926667,EPP Niangon,
StopPoint:node:6913201912,5.3240967,-4.0869618999999995,Saint Pierre,
StopPoint:node:6913201913,5.3247411,-4.0797694,Akadjoba,
StopPoint:node:6913201914,5.3287702,-4.0762905,Arrêt de bus,
StopPoint:node:6913201915,5.3146024999999995,-4.0185126,Gare Sud,
StopPoint:node:6913291219,5.3145058999999994,-4.0183571,Gare Sud,
StopPoint:node:6913703797,5.329485,-3.9977011,CNTG-BNETD,
StopPoint:node:6913703798,5.3310059,-3.9970399,UCAO,
StopPoint:node:6913703799,5.3350719,-3.9973538,Maison du Parti,
StopPoint:node:6913703800,5.308493599999999,-3.9997195,Piscine d’État de Treichville,
StopPoint:node:6913703801,5.3074734,-3.990551,NSIA,
StopPoint:node:6913703802,5.308671899999999,-3.9837800999999997,Gare Marcory,
StopPoint:node:6913703803,5.335365599999999,-3.9975172,Maison du Parti,
StopPoint:node:6913703804,5.331031299999999,-3.9969162,UCAO,
StopPoint:node:6913703805,5.3293836,-3.9976803999999997,CNTG-BNETD,
StopPoint:node:6913857608,5.3556761,-4.065843699999999,Sable,
StopPoint:node:6913857611,5.3407344,-4.0646331,"Complexe Sportif, Yopougon",
StopPoint:node:6913857612,5.3424008999999995,-4.0665987,Mairie de Yopougon,
StopPoint:node:6913929664,5.3443401,-4.0375561,La Marine,
StopPoint:node:6913929665,5.3278599,-4.0262003,Sitarail,
StopPoint:node:6913929666,5.3146118,-4.0182589,Gare Sud,
StopPoint:node:6913929668,5.344185899999999,-4.0376761,La Marine,
StopPoint:node:6913929669,5.3295615,-4.0737135,Gare Yopougon Kouté,
StopPoint:node:6913931703,5.336709099999999,-4.0216157,Gendarmerie,
StopPoint:node:6913974340,5.3369705,-4.0217222,Gendarmerie,
StopPoint:node:6915341517,5.400545,-3.9728972,Soleil 2,
StopPoint:node:6915341518,5.4035247,-3.9837323,Arrêt,
StopPoint:node:6915341519,5.4062326,-3.9906835999999997,Arrêt,
StopPoint:node:6915341520,5.4297268999999995,-3.9894233999999997,Arrêt,
StopPoint:node:6915341521,5.4313416,-3.9891221999999997,Arrêt,
StopPoint:node:6915341523,5.4564179,-3.9725804,Abobo Biabou,
StopPoint:node:6915341525,5.4564283,-3.9726481999999996,Abobo Biabou,
StopPoint:node:6915341526,5.4454571,-3.9781839999999997,Arrêt,
StopPoint:node:6915341527,5.4430187,-3.9810371,Arrêt,
StopPoint:node:6915341528,5.441542999999999,-3.9831075,Arrêt,
StopPoint:node:6915341529,5.4403681,-3.9847859,Arrêt,
StopPoint:node:6915341530,5.4391313,-3.9859782999999998,Arrêt,
StopPoint:node:6915341531,5.4368688,-3.9875152999999997,Arrêt,
StopPoint:node:6915341532,5.4356843,-3.9879909999999996,Arrêt,
StopPoint:node:6915341533,5.434457,-3.9883618999999997,Arrêt,
StopPoint:node:6915341534,5.4327625,-3.9887503,Arrêt,
StopPoint:node:6915341535,5.4312302,-3.9889419,Arrêt,
StopPoint:node:6915341536,5.4293214999999995,-3.9892581,Arrêt,
StopPoint:node:6915341537,5.4264243,-3.9896960999999997,Arrêt,
StopPoint:node:6915341538,5.4229496,-3.9902515,Arrêt,
StopPoint:node:6915341539,5.4208149,-3.9905681,Arrêt,
StopPoint:node:6915341540,5.4195345,-3.9907253999999996,Arrêt,
StopPoint:node:6915341541,5.4182159,-3.9909298,Arrêt,
StopPoint:node:6915341542,5.4158878,-3.9922122,Arrêt,
StopPoint:node:6915341543,5.4154922999999995,-3.9928597,Arrêt,
StopPoint:node:6915341544,5.414820499999999,-3.9947036,Arrêt,
StopPoint:node:6915341545,5.4141246999999995,-3.9952878999999997,Arrêt,
StopPoint:node:6915341546,5.409530999999999,-3.9932261999999996,Arrêt,
StopPoint:node:6915341547,5.4050885,-3.990564,Petro Ivoire,
StopPoint:node:6915341548,5.403643,-3.9829561,Arrêt,
StopPoint:node:6915341549,5.4033522,-3.9807645,Arrêt,
StopPoint:node:6915487638,5.358496499999999,-3.9634359,9 Kilo,
StopPoint:node:6915487639,5.360974,-3.9586683,Rond-Point de la Palmeraie,
StopPoint:node:6915487640,5.3606149,-3.9598948,Carrefour de la Gendarmerie,
StopPoint:node:6915487641,5.3568703,-3.9665508,Cap Nord,
StopPoint:node:6915487642,5.353259899999999,-3.9779823999999997,Riviéra 2,
StopPoint:node:6915487643,5.350229199999999,-3.9881887,École de Police,
StopPoint:node:6915487644,5.349223299999999,-3.9943092,École de la Gendarmerie,
StopPoint:node:6915487645,5.3485121,-4.0018215,Carrefour de la Vie,
StopPoint:node:6915647682,5.4217637,-4.0185375,Mairie d'ABOBO,
StopPoint:node:6915647683,5.4270593,-4.0212661999999995,Arrêt,
StopPoint:node:6915647684,5.4303631,-4.0241314,Arrêt,
StopPoint:node:6915696792,5.3588089,-3.9634224999999996,9 Kilo,
StopPoint:node:6915696795,5.359604699999999,-3.9620357999999998,,
StopPoint:node:6915696796,5.3576713,-3.9654422,,
StopPoint:node:6915696797,5.3504609,-3.9881604999999998,École de Police,
StopPoint:node:6915696798,5.3494956,-3.9916044,Carrefour CHU,
StopPoint:node:6915696799,5.3493834,-3.9944569999999997,École de la Gendarmerie,
StopPoint:node:6915696800,5.3485982,-4.002964899999999,Carrefour de la Vie,
StopPoint:node:6915722685,5.4333404,-4.0266778,Arrêt,
StopPoint:node:6915722686,5.439064,-4.0446219,Arrêt,
StopPoint:node:6915722687,5.443506,-4.0485169999999995,Arrêt,
StopPoint:node:6915722688,5.4482915,-4.0512502,Arrêt,
StopPoint:node:6915722689,5.450353499999999,-4.052990299999999,Arrêt,
StopPoint:node:6915722690,5.4565524,-4.0545715,Arrêt,
StopPoint:node:6915722691,5.457444799999999,-4.054497,Arrêt,
StopPoint:node:6915722692,5.465097999999999,-4.0544278,Arrêt,
StopPoint:node:6915722693,5.4662168,-4.0540278999999995,Arrêt,
StopPoint:node:6915722694,5.4680953,-4.0530973999999995,Arrêt,
StopPoint:node:6915722695,5.4794949,-4.0538658,Arrêt,
StopPoint:node:6915722696,5.4828953,-4.0513357999999995,Arrêt,
StopPoint:node:6915722697,5.4837187,-4.0513476,Arrêt,
StopPoint:node:6915722698,5.4866626,-4.05146,Arrêt,
StopPoint:node:6915722699,5.489059699999999,-4.0515593,Arrêt,
StopPoint:node:6915722700,5.490427899999999,-4.0516046999999995,Arrêt,
StopPoint:node:6915722701,5.490914999999999,-4.0516233,Arrêt,
StopPoint:node:6915722702,5.4914502999999995,-4.051639,Arrêt,
StopPoint:node:6915722703,5.4928779,-4.0516635999999995,Arrêt,
StopPoint:node:6915722704,5.4940805,-4.0517658,Arrêt,
StopPoint:node:6915722705,5.495095,-4.0517794,Arrêt,
StopPoint:node:6915722706,5.4960474,-4.0516644,Arrêt,
StopPoint:node:6915722707,5.4970767,-4.0515036,Arrêt,
StopPoint:node:6915722708,5.497669,-4.051438,Arrêt,
StopPoint:node:6915722709,5.4979794,-4.0513918,Arrêt,
StopPoint:node:6915722710,5.4995750999999995,-4.0516497,Arrêt,
StopPoint:node:6915722711,5.500507,-4.0519247,Arrêt,
StopPoint:node:6915722712,5.5011338,-4.0520933999999995,Arrêt,
StopPoint:node:6915722713,5.501598899999999,-4.0522124999999996,Arrêt,
StopPoint:node:6915722714,5.5026911,-4.0525268,Arrêt,
StopPoint:node:6915722715,5.5045432,-4.0530593999999995,Arrêt,
StopPoint:node:6915722716,5.505344399999999,-4.0532829,Arrêt,
StopPoint:node:6915722717,5.506459899999999,-4.0531365,Mairie d'Anyama,
StopPoint:node:6915722719,5.5064063999999995,-4.0530408,Mairie d'Anyama,
StopPoint:node:6915722720,5.4976427,-4.0513828,Arrêt,
StopPoint:node:6915722721,5.5027177,-4.0523687,Arrêt,
StopPoint:node:6915722722,5.4994894,-4.0514357,Arrêt,
StopPoint:node:6915722723,5.4949787,-4.0516383,Arrêt,
StopPoint:node:6915722724,5.4888603,-4.051407,Arrêt,
StopPoint:node:6915722725,5.4863031,-4.0513417,Arrêt,
StopPoint:node:6915722726,5.4825896,-4.0512201,Arrêt,
StopPoint:node:6915722727,5.4799549999999995,-4.0531887,Arrêt,
StopPoint:node:6915722728,5.4757466,-4.0552147,Arrêt A l'Ecole,
StopPoint:node:6915722729,5.470731,-4.0531044,Arrêt Contrôle,
StopPoint:node:6915722730,5.4669354,-4.0534140999999995,Arrêt,
StopPoint:node:6915722731,5.4611068,-4.0537589999999994,Arrêt Ancienne Gendarmerie,
StopPoint:node:6915722732,5.452617399999999,-4.0544875,Arrêt,
StopPoint:node:6915722733,5.4503748,-4.0526523,Arrêt Ancien Marché,
StopPoint:node:6915722734,5.4483606,-4.0510763999999995,Arrêt Terminus,
StopPoint:node:6915722735,5.4449974,-4.049142499999999,Arrêt Agripac,
StopPoint:node:6915722736,5.4437844,-4.048463,Arrêt,
StopPoint:node:6916152424,5.2875843,-4.0057303,Terminus dépôt SOTRA,
StopPoint:node:6916152425,5.2890666,-4.0084018,Pharmacie Port-Bouet,
StopPoint:node:6916152426,5.2961662,-4.0033565,Arrêt du CHU,
StopPoint:node:6916152427,5.299150699999999,-4.0024882,Gare de Bassam,
StopPoint:node:6916181080,5.3478959,-4.0026565,Arrêt,
StopPoint:node:6916181081,5.3700062,-3.9983307999999997,Grande Pharmacie /Terminus 300FCFA,
StopPoint:node:6916280433,5.4157357,-3.9930971,Arrêt,
StopPoint:node:6916280434,5.4149934,-3.9940211,Terminus Abobo Baoulé,
StopPoint:node:6916280435,5.4129627,-3.9948875,Pharmacie Actuelle,
StopPoint:node:6916280436,5.4103430999999995,-3.9939446999999997,Arrêt,
StopPoint:node:6916280437,5.4085794,-3.9923862999999997,Arrêt,
StopPoint:node:6916280438,5.4071215,-3.9910921,Saint Ambroise,
StopPoint:node:6916280439,5.4055233,-3.990494,Arrêt,
StopPoint:node:6916280440,5.4011787,-3.9910264,Arrêt,
StopPoint:node:6916280441,5.399202,-3.9912805999999996,Carrefour 22è,
StopPoint:node:6916280442,5.3973362,-3.9915239999999996,SODECI,
StopPoint:node:6916280443,5.3945042999999995,-3.9918310999999997,Paris Baguette,
StopPoint:node:6916280444,5.387512699999999,-3.9927256,Arrêt,
StopPoint:node:6916280445,5.3797969,-3.9952143999999996,Arrêt,
StopPoint:node:6916280446,5.3737194,-3.9983247,NSIA,
StopPoint:node:6916280447,5.3699807999999996,-3.9981256,SGBGI,
StopPoint:node:6916280448,5.346536599999999,-4.002551899999999,Cité BAD,
StopPoint:node:6916280449,5.3386878,-4.0035403,CIE,
StopPoint:node:6917146061,5.3065218,-3.9865047,Commissariat du 9 ème,
StopPoint:node:6917146062,5.3061086,-3.9857063,Commissariat du 9 ème,
StopPoint:node:6917146063,5.3034406,-3.9808608999999997,King Cash,
StopPoint:node:6917146064,5.3015677,-3.9776046999999997,Cabinet Médical du 3ème pont,
StopPoint:node:6917146065,5.3005375,-3.9757211,Marché de Marcory,
StopPoint:node:6917146066,5.298625899999999,-3.9722389,Paroisse Sainte Bernadette,
StopPoint:node:6917146067,5.2982013,-3.9714764999999996,Pharmacie Bagoué,
StopPoint:node:6917146068,5.2968312,-3.9688084,Banque of Africa,
StopPoint:node:6917146069,5.2965895,-3.9650103,Arrêt,
StopPoint:node:6917146070,5.2975636,-3.9608220999999997,Arrêt,
StopPoint:node:6917146071,5.2983628,-3.9572333,Palce Inchallah,
StopPoint:node:6917146072,5.2992706,-3.9531435999999998,Koumassi Prodomo,
StopPoint:node:6917146073,5.3001328999999995,-3.9494388,Gare Mesano,
StopPoint:node:6917146074,5.3008577,-3.9476752,Koumassi Mesano,
StopPoint:node:6917146075,5.3002934999999995,-3.9483867,Koumassi Mesano,
StopPoint:node:6917146076,5.2998074,-3.9505841,Station Petro Ivoire,
StopPoint:node:6917146077,5.298949599999999,-3.9543701999999996,Palce Inchallah,
StopPoint:node:6917146078,5.2980163,-3.9585451,Arrêt,
StopPoint:node:6917146079,5.2972737,-3.9619419,Arrêt,
StopPoint:node:6917146080,5.2962808,-3.9660523,Arrêt,
StopPoint:node:6917146081,5.296728,-3.9687628999999998,Banque of Africa,
StopPoint:node:6917146082,5.2980069,-3.9712862999999996,Pharmacie Bagoué,
StopPoint:node:6917146083,5.300615,-3.9760118999999996,Marché de Marcory,
StopPoint:node:6917146084,5.301658499999999,-3.9778784999999997,Cabinet Médical du 3ème pont,
StopPoint:node:6917151685,5.3044464,-3.9828403999999997,Arrêt,
StopPoint:node:6917151686,5.306216099999999,-3.9860886,Commissariat du 9 ème,
StopPoint:node:6917151687,5.3077309,-3.9888489999999996,Arrêt,
StopPoint:node:6917151688,5.3084636,-3.9904412999999996,Yan Auto Ecole,
StopPoint:node:6919177052,5.3588812,-4.0277531,Gare Nord,
StopPoint:node:6919194336,5.3106101,-4.0352896,Gare Abobodoumé,
StopPoint:node:6919312942,5.3270854,-4.0923844,Cité Bracodi Rte Cité verte,
StopPoint:node:6919312943,5.332209,-4.1119954,Cité Verte,
StopPoint:node:6919312945,5.3316148,-4.109973,Collège Sebaco,
StopPoint:node:6919312946,5.3306787,-4.1058974,Cité Bracodi Rte Cité verte,
StopPoint:node:6919312947,5.3296893,-4.1035223,Banque BNI,
StopPoint:node:6919312948,5.328424099999999,-4.1005389999999995,Le repère,
StopPoint:node:6919312949,5.3278004999999995,-4.097620099999999,Carrefour de Niangon,
StopPoint:node:6919312950,5.324154699999999,-4.0812954,Akadjoba,
StopPoint:node:6919312951,5.3103476,-4.0351533,Gare Abobodoumé,
StopPoint:node:6919327586,5.3093629,-4.0440309,Santé Village,
StopPoint:node:6919327587,5.322126,-4.053652,Le petit soleil,
StopPoint:node:6919327588,5.3235388,-4.0573213,,
StopPoint:node:6919327589,5.324122399999999,-4.0669544,Marché Kouté,
StopPoint:node:6919327590,5.3251706,-4.0710314,Carrefour Kouté,
StopPoint:node:6919327591,5.325455,-4.0761933,Marejea,
StopPoint:node:6919327592,5.3243373,-4.079909499999999,,
StopPoint:node:6919327593,5.323864599999999,-4.0818366,Akadjoba,
StopPoint:node:6919327594,5.3264404999999995,-4.0914322,,
StopPoint:node:6919327595,5.327729,-4.0976496,Carrefour de Niangon,
StopPoint:node:6919327596,5.328356599999999,-4.1005785999999995,Le repère,
StopPoint:node:6919327597,5.3295851,-4.1035169,Top Qualitée,
StopPoint:node:6919327598,5.3307695,-4.1063239,Cité Bracodi Rte Cité verte,
StopPoint:node:6919758025,5.2982594,-3.9831407,Arrêt,
StopPoint:node:6919758026,5.296130799999999,-3.9792079,Arrêt,
StopPoint:node:6919758027,5.294562399999999,-3.9763808999999997,Arrêt,
StopPoint:node:6919758028,5.293456,-3.9743974,Arrêt,
StopPoint:node:6919758029,5.2927669,-3.9712223,Arrêt,
StopPoint:node:6919758030,5.2932236,-3.9690282999999997,Arrêt,
StopPoint:node:6919758031,5.2940469,-3.965347,Arrêt,
StopPoint:node:6919758032,5.2951953,-3.9603108,Arrêt,
StopPoint:node:6919758033,5.296132399999999,-3.9565101,Arrêt,
StopPoint:node:6919758034,5.297599,-3.9526269,Arrêt,
StopPoint:node:6919758035,5.298650299999999,-3.9479176,Arrêt,
StopPoint:node:6919758036,5.3015424,-3.9469643999999997,Station Petro Ivoire,
StopPoint:node:6919758037,5.3043092,-3.9453316,Arrêt,
StopPoint:node:6919758038,5.3080061999999995,-3.946713,Bon Samaritain,
StopPoint:node:6919758039,5.3099761999999995,-3.9473403,Pharmacie Fanny,
StopPoint:node:6919758040,5.3109106,-3.9466942,Patisserie MC,
StopPoint:node:6919758041,5.311174299999999,-3.9450513999999997,Terminus 05 Lycée Municipal de Koumassi,
StopPoint:node:6924851825,5.302330899999999,-4.0106562,Charara,
StopPoint:node:6924851826,5.3047639,-4.0115547,FIESTA,
StopPoint:node:6924851828,5.3028704,-4.0006756999999995,Treichville Entente,
StopPoint:node:6924851829,5.3015791,-4.0016802,Nostalgie,
StopPoint:node:6924851830,5.300882,-4.0035549999999995,Banque Bicici,
StopPoint:node:6924851831,5.299959299999999,-4.0062869,,
StopPoint:node:6924851833,5.3585959999999995,-4.0277482,Gare Nord SOTRA Adjamé,
StopPoint:node:6924979791,5.3025272,-4.0106307,Charara,
StopPoint:node:6924979792,5.3029946,-4.0062426,Pharmacie de l'Avenue 27,
StopPoint:node:6924979794,5.3032777,-4.0008245,Treichville Entente,
StopPoint:node:6926746685,5.329623799999999,-4.0208888,,
StopPoint:node:6926746686,5.3309405,-4.0236111999999995,Terminus tours Administratives,
StopPoint:node:6926746688,5.3149679999999995,-4.0189824,Terminus Gare Sud,
StopPoint:node:6926746689,5.301804799999999,-4.0096435999999995,Station Total,
StopPoint:node:6926746749,5.4538834,-3.9737989,Arrêt,
StopPoint:node:6926746750,5.438545599999999,-3.9864522,Arrêt,
StopPoint:node:6926746751,5.4222388,-3.9903196999999997,Arrêt,
StopPoint:node:6926746752,5.415454899999999,-3.9996625999999997,Arrêt,
StopPoint:node:6926746753,5.4154484,-4.0016378,Arrêt,
StopPoint:node:6926746754,5.4155231,-4.005404899999999,Arrêt,
StopPoint:node:6926746755,5.415269599999999,-4.0071858,Samake,
StopPoint:node:6926746757,5.3589397,-4.02802,Gare Nord,
StopPoint:node:6926746758,5.4155963,-4.0019605,Arrêt,
StopPoint:node:6926746759,5.4156232,-3.9928882,Arrêt,
StopPoint:node:6926746760,5.419660299999999,-3.9908192999999996,Arrêt,
StopPoint:node:6926746761,5.422222,-3.9904401,Arrêt,
StopPoint:node:6926746762,5.4265156999999995,-3.9898618999999997,Arrêt,
StopPoint:node:6926746763,5.43368,-3.9886815999999996,Arrêt,
StopPoint:node:6926746764,5.437405399999999,-3.9873448999999996,Arrêt,
StopPoint:node:6926746765,5.4402786,-3.9850082,Arrêt,
StopPoint:node:6926746766,5.443381,-3.9807702999999997,Arrêt,
StopPoint:node:6926746767,5.4451883,-3.9785568999999996,Arrêt,
StopPoint:node:6926943107,5.3079127,-3.9465969999999997,Bon Samaritain,
StopPoint:node:6926943108,5.3050831,-3.9451392,Pharmacie Campement,
StopPoint:node:6926943109,5.3011838,-3.9835873,Hôpital Général de Marcory,
StopPoint:node:6926943110,5.3034579,-4.004664099999999,Pharmacie Notre-Dame,
StopPoint:node:6926943111,5.3146669,-4.0185813999999995,Gare Sud,
StopPoint:node:6926943112,5.3311928,-4.0236086,Terminus tours Administratives,
StopPoint:node:6927022357,5.3051246999999995,-3.9839292,,
StopPoint:node:6927037611,5.4159386,-3.9930649,Arrêt,
StopPoint:node:6927037612,5.408251,-4.006340499999999,Arrêt,
StopPoint:node:6927037613,5.4057129,-4.0063848,Arrêt,
StopPoint:node:6927037614,5.4013897,-4.0064518,Arrêt,
StopPoint:node:6927037615,5.3930717,-4.0057893,Arrêt,
StopPoint:node:6927037616,5.3875774,-4.0056726,Arrêt,
StopPoint:node:6927037617,5.3801858,-4.0066168,Arrêt,
StopPoint:node:6927037618,5.3625903,-4.0168427,Arrêt,
StopPoint:node:6927037619,5.3503618,-4.0170243999999995,Pharmacie le Belier,
StopPoint:node:6927037620,5.3456673,-4.017835799999999,Fraternité Matin,
StopPoint:node:6927037621,5.3411247,-4.0237561,Arrêt,
StopPoint:node:6927037622,5.337275099999999,-4.0237963,Arrêt,
StopPoint:node:6927037623,5.3339228,-4.0238252,Arrêt,
StopPoint:node:6927037625,5.3310099,-4.0238352,Terminus tours Administratives,
StopPoint:node:6927037626,5.3339514999999995,-4.0238860999999995,Arrêt,
StopPoint:node:6927037627,5.3377117,-4.0238741,Arrêt,
StopPoint:node:6927037628,5.3557539,-4.0161668,Arrêt,
StopPoint:node:6927037629,5.379605,-4.0068716,Arrêt,
StopPoint:node:6927037630,5.386285,-4.0059958,Arrêt,
StopPoint:node:6927037631,5.4018603,-4.0065437,Arrêt,
StopPoint:node:6927037633,5.4158855,-3.9933256999999998,Abobo Belleville,
StopPoint:node:6927327302,5.3434193,-4.0125125,Arrêt,
StopPoint:node:6927327303,5.346265,-4.0103402,Arrêt,
StopPoint:node:6927327304,5.3494085,-4.0088409,Arrêt,
StopPoint:node:6927327305,5.3529759,-4.0044479,Arrêt,
StopPoint:node:6927327306,5.4043844,-3.989773,Arrêt,
StopPoint:node:6927327307,5.4048156,-3.9851495999999997,Arrêt,
StopPoint:node:6927327308,5.4082837999999995,-3.9867901,Arrêt,
StopPoint:node:6927327309,5.407261,-3.9890592,Arrêt,
StopPoint:node:6927327310,5.3528041,-4.0043218,Arrêt,
StopPoint:node:6927327311,5.3493597,-4.0085859,Arrêt,
StopPoint:node:6927327312,5.3461658,-4.0102683,Arrêt,
StopPoint:node:6927327313,5.3433259,-4.0124656,Polyclinique,
StopPoint:node:6927327314,5.3147842999999995,-4.0187215,Gare Sud,
StopPoint:node:6927330411,5.3022214,-3.9464601999999998,Station Total,
StopPoint:node:6927330412,5.3120389,-3.9450814999999997,Terminus 05 Lycée Municipal de Koumassi,
StopPoint:node:6927330413,5.3099837999999995,-3.9472560999999997,Pharmacie Fanny,
StopPoint:node:6927330414,5.3362229,-4.0047298,,
StopPoint:node:6927330416,5.3461988,-3.9938515999999997,Gare Campus Cocody,
StopPoint:node:6927544633,5.346124,-3.9972611999999996,INSAAC,
StopPoint:node:6927544634,5.3359628,-4.0030417,Saint Jean,
StopPoint:node:6927544636,5.3358129,-4.0029552,Saint Jean,
StopPoint:node:6927544637,5.348268699999999,-3.9970998,Gendarmerie,
StopPoint:node:6927600976,5.3536864,-4.0175371,,
StopPoint:node:6927600977,5.356730499999999,-4.0250561,Mirador,
StopPoint:node:6927631763,5.3566458,-4.0241115,Arrêt SICOGI,
StopPoint:node:6927694921,5.3592856,-4.0275494,Gare Nord Adjamé,
StopPoint:node:6927701716,5.3471068,-3.997229,,
StopPoint:node:6928179123,5.3534266,-3.9699899,Terminus Riviera 2,
StopPoint:node:6928179124,5.353398299999999,-3.9736350999999996,Cité étudiante Riviera 2,
StopPoint:node:6928179125,5.352592899999999,-3.9780678,Riviera 2,
StopPoint:node:6928179126,5.3512739,-3.9805625,Petite Mosquée Riviéra Jardin,
StopPoint:node:6928250859,5.3516026,-3.9803498999999998,Petite Mosquée Riviéra Jardin,
StopPoint:node:6928250860,5.3526374,-3.9781866999999997,Riviera 2,
StopPoint:node:6928250861,5.3530767,-3.9761320999999996,Cité étudiante Riviera 2,
StopPoint:node:6928250862,5.3535067,-3.9699912,Terminus Riviera 2,
StopPoint:node:6928681599,5.2563753,-3.9975737,Terminus Vridi-Iran,
StopPoint:node:6928681601,5.2947326,-4.0101948,Arrêt Cuirasse Ciment,
StopPoint:node:6928681602,5.358865,-4.0279772,Gare Nord,
